[{"VOLGNR": 188, "LATMAX": 52.4183998, "LNGMAX": 4.8867402, "SELECTIE": "VOETBAL", "LABEL": "PETMOLEN", "COORDS": "4.886738,52.418446||", "details": {"Locatie": "Plantsoen", "Sportvoorziening": "Voetbal", "Oppervlak": "450", "image": "http://maps.amsterdam.nl/sport/Downloads/Petmolen.jpg", "Ondergrond": "Gras", "Verlichting": "Nee", "Omheining": "Geen", "Omschrijving": "Voetbalveld, kleine doelen"}, "TYPE": "punt"}, {"VOLGNR": 189, "LATMAX": 52.4192009, "LNGMAX": 4.8898602, "SELECTIE": "VOETBAL", "LABEL": "WATERMOLEN", "COORDS": "4.88986,52.419214||", "details": {"Locatie": "Plantsoen", "Sportvoorziening": "Voetbal", "Oppervlak": "893", "image": "http://maps.amsterdam.nl/sport/Downloads/Watermolen.jpg", "Ondergrond": "Gras", "Verlichting": "Nee", "Omheining": "Geen", "Omschrijving": "Voetbalveld"}, "TYPE": "punt"}, {"VOLGNR": 190, "LATMAX": 52.3889008, "LNGMAX": 4.9503999, "SELECTIE": "VOETBAL", "LABEL": "NIEUWENDAM", "COORDS": "4.950398,52.388859||", "details": {"Locatie": "Speeltuin", "Sportvoorziening": "Voetbal", "Oppervlak": "842", "image": "http://maps.amsterdam.nl/sport/Downloads/Nieuwendam_2.jpg", "Ondergrond": "Asfalt", "Verlichting": "Ja", "Omheining": "Ballenvangers", "Omschrijving": "Voetbalveld, kleine doelen, speeltuin Nieuwendam"}, "TYPE": "punt"}, {"VOLGNR": 191, "LATMAX": 52.3900986, "LNGMAX": 4.9562201, "SELECTIE": "VOETBAL", "LABEL": "WERENGOUW", "COORDS": "4.956218,52.390112||", "details": {"Locatie": "Plein", "Sportvoorziening": "Voetbal", "Oppervlak": "673", "image": "http://maps.amsterdam.nl/sport/Downloads/Werengouw.jpg", "Ondergrond": "Stoeptegels", "Verlichting": "Nee", "Omheining": "Ballenvangers", "Omschrijving": "Voetbalveld"}, "TYPE": "punt"}, {"VOLGNR": 192, "LATMAX": 52.3909988, "LNGMAX": 4.9568601, "SELECTIE": "VOETBAL", "LABEL": "BUSSUMSTRAAT", "COORDS": "4.956855,52.391049||", "details": {"Locatie": "Plein", "Sportvoorziening": "Voetbal", "Oppervlak": "555", "image": "http://maps.amsterdam.nl/sport/Downloads/Bussumstraat.jpg", "Ondergrond": "Stoeptegels", "Verlichting": "Nee", "Omheining": "Ballenvangers", "Omschrijving": "Voetbaldoel, kleine doelen, veld ligt verdiept"}, "TYPE": "punt"}, {"VOLGNR": 193, "LATMAX": 52.3919983, "LNGMAX": 4.9603601, "SELECTIE": "VOETBAL", "LABEL": "CORVERSBOSSTRAAT", "COORDS": "4.960356,52.39205||", "details": {"Locatie": "Schoolplein", "Sportvoorziening": "Voetbal", "Oppervlak": "586", "image": "http://maps.amsterdam.nl/sport/Downloads/Corversbosstraat_2.jpg", "Ondergrond": "Stoeptegels", "Verlichting": "Nee", "Omheining": "Ballenvangers", "Omschrijving": "Voetbalveld, kleine doelen, veld gedeeltelijk afgezet met spijlenhekwerk"}, "TYPE": "punt"}, {"VOLGNR": 194, "LATMAX": 52.3965988, "LNGMAX": 4.95438, "SELECTIE": "VOETBAL", "LABEL": "PETTENSTRAAT", "COORDS": "4.954377,52.396558||", "details": {"Locatie": "Straat", "Sportvoorziening": "Voetbal", "Oppervlak": "383", "image": "http://maps.amsterdam.nl/sport/Downloads/Pettenstraat.jpg", "Ondergrond": "Stoeptegels", "Verlichting": "Nee", "Omheining": "Geen", "Omschrijving": "Voetbalveld, kleine doelen, laag hek achter 1 doel"}, "TYPE": "punt"}, {"VOLGNR": 195, "LATMAX": 52.4028015, "LNGMAX": 4.9466701, "SELECTIE": "VOETBAL", "LABEL": "ELPERMEER", "COORDS": "4.946675,52.402848||", "details": {"Locatie": "Plantsoen", "Sportvoorziening": "Voetbal", "Oppervlak": "366", "image": "http://maps.amsterdam.nl/sport/Downloads/Elpermeer.jpg", "Ondergrond": "Stoeptegels", "Verlichting": "Nee", "Omheining": "Geen", "Omschrijving": "Voetbalveld, zitbanken naast veld, combi-veld"}, "TYPE": "punt"}, {"VOLGNR": 196, "LATMAX": 52.4016991, "LNGMAX": 4.9409399, "SELECTIE": "VOETBAL", "LABEL": "MARIENDAAL", "COORDS": "4.940941,52.401676||", "details": {"Locatie": "Plantsoen", "Sportvoorziening": "Voetbal", "Oppervlak": "817", "image": "http://maps.amsterdam.nl/sport/Downloads/Mariendaal.jpg", "Ondergrond": "Asfalt", "Verlichting": "Nee", "Omheining": "Ballenvangers", "Omschrijving": "Voetbalveld, 2 lange zijden laag spijlenhekwerk, zitbanken naast veld"}, "TYPE": "punt"}, {"VOLGNR": 197, "LATMAX": 52.3828011, "LNGMAX": 4.9112601, "SELECTIE": "VOETBAL", "LABEL": "IJPLEIN", "COORDS": "4.911257,52.382813||", "details": {"Locatie": "Plantsoen", "Sportvoorziening": "Voetbal", "Oppervlak": "290", "image": "http://maps.amsterdam.nl/sport/Downloads/IJplein_2.jpg", "Ondergrond": "Asfalt", "Verlichting": "Nee", "Omheining": "Geen", "Omschrijving": "Voetbalveld, kleine doelen"}, "TYPE": "punt"}, {"VOLGNR": 198, "LATMAX": 52.384201, "LNGMAX": 4.9144201, "SELECTIE": "VOETBAL", "LABEL": "SPREEUWENPARK", "COORDS": "4.914415,52.384174||", "details": {"Locatie": "Plantsoen", "Sportvoorziening": "Voetbal", "Oppervlak": "532", "image": "http://maps.amsterdam.nl/sport/Downloads/Spreeuwenpark_2.jpg", "Ondergrond": "Asfalt", "Verlichting": "Nee", "Omheining": "Kooi open", "Omschrijving": "Voetbalveld, combi-veld"}, "TYPE": "punt"}, {"VOLGNR": 199, "LATMAX": 52.3838997, "LNGMAX": 4.91787, "SELECTIE": "VOETBAL", "LABEL": "KETELMAKERIJ", "COORDS": "4.917869,52.383873||", "details": {"Locatie": "Straat", "Sportvoorziening": "Voetbal", "Oppervlak": "319", "image": "http://maps.amsterdam.nl/sport/Downloads/Ketelmakerij.jpg", "Ondergrond": "Stoeptegels", "Verlichting": "Nee", "Omheining": "Kooi gesloten", "Omschrijving": "Voetbalveld, kleine doelen, zitbanken naast veld"}, "TYPE": "punt"}, {"VOLGNR": 200, "LATMAX": 52.388401, "LNGMAX": 4.9224801, "SELECTIE": "VOETBAL", "LABEL": "MEEUWENPLEIN", "COORDS": "4.922478,52.388412||", "details": {"Locatie": "Plantsoen", "Sportvoorziening": "Voetbal", "Oppervlak": "911", "image": "http://maps.amsterdam.nl/sport/Downloads/Meeuwenplein.jpg", "Ondergrond": "Asfalt", "Verlichting": "Nee", "Omheining": "Ballenvangers", "Omschrijving": "Voetbalveld, zitbanken naast veld"}, "TYPE": "punt"}, {"VOLGNR": 201, "LATMAX": 52.3919983, "LNGMAX": 4.9309902, "SELECTIE": "VOETBAL", "LABEL": "NOORDERLING", "COORDS": "4.930991,52.391959||", "details": {"Locatie": "Speeltuin", "Sportvoorziening": "Voetbal", "Oppervlak": "635", "image": "http://maps.amsterdam.nl/sport/Downloads/DeNoorderling_2.jpg", "Ondergrond": "Asfalt", "Verlichting": "Ja", "Omheining": "Kooi gesloten", "Omschrijving": "Voetbalveld, kleine doelen, speeltuin De Noorderling"}, "TYPE": "punt"}, {"VOLGNR": 202, "LATMAX": 52.3927994, "LNGMAX": 4.9260302, "SELECTIE": "VOETBAL", "LABEL": "TEXELPLEIN", "COORDS": "4.926031,52.39282||", "details": {"Locatie": "Plein", "Sportvoorziening": "Voetbal", "Oppervlak": "211", "image": "http://maps.amsterdam.nl/sport/Downloads/Texelplein.jpg", "Ondergrond": "Stoeptegels", "Verlichting": "Nee", "Omheining": "Kooi gesloten", "Omschrijving": "Voetbalveld, kleine doelen"}, "TYPE": "punt"}, {"VOLGNR": 203, "LATMAX": 52.398201, "LNGMAX": 4.93151, "SELECTIE": "VOETBAL", "LABEL": "LOENERMARK", "COORDS": "4.931514,52.398234||", "details": {"Locatie": "Plantsoen", "Sportvoorziening": "Voetbal", "Oppervlak": "480", "image": "http://maps.amsterdam.nl/sport/Downloads/Loenermark_2.jpg", "Ondergrond": "Asfalt", "Verlichting": "Nee", "Omheining": "Ballenvangers", "Omschrijving": "Voetbalveld, kleine doelen"}, "TYPE": "punt"}, {"VOLGNR": 204, "LATMAX": 52.3963013, "LNGMAX": 4.9344301, "SELECTIE": "VOETBAL", "LABEL": "BREEDVELD", "COORDS": "4.934429,52.39625||", "details": {"Locatie": "Plantsoen", "Sportvoorziening": "Voetbal", "Oppervlak": "1013", "image": "http://maps.amsterdam.nl/sport/Downloads/Breedveld_1.jpg", "Ondergrond": "Onverhard", "Verlichting": "Nee", "Omheining": "Geen", "Omschrijving": "Voetbalveld"}, "TYPE": "punt"}, {"VOLGNR": 205, "LATMAX": 52.4071999, "LNGMAX": 4.9214702, "SELECTIE": "VOETBAL", "LABEL": "DRIEMASTER", "COORDS": "4.921473,52.40721||", "details": {"Locatie": "Schoolplein", "Sportvoorziening": "Voetbal", "Oppervlak": "310", "image": "http://maps.amsterdam.nl/sport/Downloads/DeDriemaster.jpg", "Ondergrond": "Stoeptegels", "Verlichting": "Nee", "Omheining": "Hekwerk laag", "Omschrijving": "Voetbalveld, combi-veld"}, "TYPE": "punt"}, {"VOLGNR": 206, "LATMAX": 52.4109001, "LNGMAX": 4.92171, "SELECTIE": "VOETBAL", "LABEL": "PARLEVINKER", "COORDS": "4.921713,52.410895||", "details": {"Locatie": "Schoolplein", "Sportvoorziening": "Voetbal", "Oppervlak": "625", "image": "http://maps.amsterdam.nl/sport/Downloads/Parlevinker.jpg", "Ondergrond": "Stoeptegels", "Verlichting": "Nee", "Omheining": "Hekwerk laag", "Omschrijving": "Voetbalveld, kleine doelen"}, "TYPE": "punt"}, {"VOLGNR": 207, "LATMAX": 52.4103012, "LNGMAX": 4.9194999, "SELECTIE": "VOETBAL", "LABEL": "OVERSLAG", "COORDS": "4.9195,52.410338||", "details": {"Locatie": "Plantsoen", "Sportvoorziening": "Voetbal", "Oppervlak": "512", "image": "http://maps.amsterdam.nl/sport/Downloads/Overslag_2.jpg", "Ondergrond": "Asfalt", "Verlichting": "Ja", "Omheining": "Ballenvangers", "Omschrijving": "Voetbalveld met belijning, kleine doelen, zitbanken naast veld"}, "TYPE": "punt"}, {"VOLGNR": 208, "LATMAX": 52.4109001, "LNGMAX": 4.9154801, "SELECTIE": "VOETBAL", "LABEL": "VOORSTEVEN", "COORDS": "4.915482,52.410889||", "details": {"Locatie": "Plantsoen", "Sportvoorziening": "Voetbal", "Oppervlak": "317", "image": "http://maps.amsterdam.nl/sport/Downloads/Voorsteven.jpg", "Ondergrond": "Onverhard", "Verlichting": "Nee", "Omheining": "Hekwerk laag", "Omschrijving": "Voetbalveld, kleine doelen, aan 1 zijde een ballenvanger"}, "TYPE": "punt"}, {"VOLGNR": 209, "LATMAX": 52.4057007, "LNGMAX": 4.9152398, "SELECTIE": "VOETBAL", "LABEL": "KOOPVAARDERSPLANTSOEN", "COORDS": "4.915244,52.405666||", "details": {"Locatie": "Plantsoen", "Sportvoorziening": "Voetbal", "Oppervlak": "369", "image": "http://maps.amsterdam.nl/sport/Downloads/Koopvaardersplantsoen.jpg", "Ondergrond": "Gras", "Verlichting": "Nee", "Omheining": "Hekwerk laag", "Omschrijving": "Voetbalveld, kleine doelen"}, "TYPE": "punt"}, {"VOLGNR": 210, "LATMAX": 52.4043007, "LNGMAX": 4.91153, "SELECTIE": "VOETBAL", "LABEL": "VIERMASTERSTRAAT", "COORDS": "4.911526,52.404276||", "details": {"Locatie": "Plein", "Sportvoorziening": "Voetbal", "Oppervlak": "230", "image": "http://maps.amsterdam.nl/sport/Downloads/Viermasterstraat.jpg", "Ondergrond": "Stoeptegels", "Verlichting": "Nee", "Omheining": "Kooi open", "Omschrijving": "Voetbalveld, kleine doelen, zitbanken naast veld"}, "TYPE": "punt"}, {"VOLGNR": 211, "LATMAX": 52.4071999, "LNGMAX": 4.91185, "SELECTIE": "VOETBAL", "LABEL": "TREILERHOF", "COORDS": "4.911848,52.40718||", "details": {"Locatie": "Plantsoen", "Sportvoorziening": "Voetbal", "Oppervlak": "145", "image": "http://maps.amsterdam.nl/sport/Downloads/Treilerhof.jpg", "Ondergrond": "Stoeptegels", "Verlichting": "Nee", "Omheining": "Ballenvangers", "Omschrijving": "Voetbaldoel, zitbanken naast veld"}, "TYPE": "punt"}, {"VOLGNR": 212, "LATMAX": 52.4062996, "LNGMAX": 4.9078999, "SELECTIE": "VOETBAL", "LABEL": "VIKINGPAD", "COORDS": "4.907904,52.406338||", "details": {"Locatie": "Plantsoen", "Sportvoorziening": "Voetbal", "Oppervlak": "1005", "image": "http://maps.amsterdam.nl/sport/Downloads/Vikingpad.jpg", "Ondergrond": "Gras", "Verlichting": "Nee", "Omheining": "Geen", "Omschrijving": "Voetbalveld, kleine doelen"}, "TYPE": "punt"}, {"VOLGNR": 213, "LATMAX": 52.419899, "LNGMAX": 4.9022698, "SELECTIE": "VOETBAL", "LABEL": "TWISKE", "COORDS": "4.902273,52.419949||", "details": {"Locatie": "Speeltuin", "Sportvoorziening": "Voetbal", "Oppervlak": "246", "image": "http://maps.amsterdam.nl/sport/Downloads/Twiske_1.jpg", "Ondergrond": "Stoeptegels", "Verlichting": "Nee", "Omheining": "Hekwerk laag", "Omschrijving": "Voetbalveld, kleine doelen, speeltuin `t Twiske, zitbanken naast veld"}, "TYPE": "punt"}, {"VOLGNR": 214, "LATMAX": 52.4222984, "LNGMAX": 4.8979402, "SELECTIE": "VOETBAL", "LABEL": "LANGE VONDER", "COORDS": "4.897941,52.422286||", "details": {"Locatie": "Straat", "Sportvoorziening": "Voetbal", "Oppervlak": "276", "image": "http://maps.amsterdam.nl/sport/Downloads/LangeVonder.jpg", "Ondergrond": "Asfalt", "Verlichting": "Nee", "Omheining": "Kooi gesloten", "Omschrijving": "Voetbalveld"}, "TYPE": "punt"}, {"VOLGNR": 215, "LATMAX": 52.4115982, "LNGMAX": 4.8860102, "SELECTIE": "VOETBAL", "LABEL": "ANTARUSSTRAAT", "COORDS": "4.886007,52.411568||", "details": {"Locatie": "Plantsoen", "Sportvoorziening": "Voetbal", "Oppervlak": "458", "image": "http://maps.amsterdam.nl/sport/Downloads/Antarusstraat_1.jpg", "Ondergrond": "Stoeptegels", "Verlichting": "Nee", "Omheining": "Ballenvangers", "Omschrijving": "Voetbalveld, zitbanken naast veld"}, "TYPE": "punt"}, {"VOLGNR": 216, "LATMAX": 52.412899, "LNGMAX": 4.88623, "SELECTIE": "VOETBAL", "LABEL": "OOSTZAAN", "COORDS": "4.886227,52.412908||", "details": {"Locatie": "Speeltuin", "Sportvoorziening": "Voetbal", "Oppervlak": "1357", "image": "http://maps.amsterdam.nl/sport/Downloads/Oostzaan.jpg", "Ondergrond": "Asfalt", "Verlichting": "Nee", "Omheining": "Ballenvangers", "Omschrijving": "Voetbalveld, speeltuin Oostzaan, combi-veld"}, "TYPE": "punt"}, {"VOLGNR": 217, "LATMAX": 52.4117012, "LNGMAX": 4.89047, "SELECTIE": "VOETBAL", "LABEL": "CASTORPLEIN", "COORDS": "4.890474,52.411667||", "details": {"Locatie": "Plantsoen", "Sportvoorziening": "Voetbal", "Oppervlak": "343", "image": "http://maps.amsterdam.nl/sport/Downloads/Castorplein.jpg", "Ondergrond": "Asfalt", "Verlichting": "Nee", "Omheining": "Ballenvangers", "Omschrijving": "Voetbalveld, kleine doelen"}, "TYPE": "punt"}, {"VOLGNR": 218, "LATMAX": 52.4048996, "LNGMAX": 4.8948898, "SELECTIE": "VOETBAL", "LABEL": "STREKKERWEG", "COORDS": "4.894885,52.404918||", "details": {"Locatie": "Plantsoen", "Sportvoorziening": "Voetbal", "Oppervlak": "358", "image": "http://maps.amsterdam.nl/sport/Downloads/Strekkerweg.jpg", "Ondergrond": "Asfalt", "Verlichting": "Nee", "Omheining": "Ballenvangers", "Omschrijving": "Voetbalveld, kleine doelen"}, "TYPE": "punt"}, {"VOLGNR": 219, "LATMAX": 52.3889999, "LNGMAX": 4.9075298, "SELECTIE": "VOETBAL", "LABEL": "VOLEWIJCK", "COORDS": "4.907532,52.389008||", "details": {"Locatie": "Speeltuin", "Sportvoorziening": "Voetbal", "Oppervlak": "533", "image": "http://maps.amsterdam.nl/sport/Downloads/Volewijck.jpg", "Ondergrond": "Asfalt", "Verlichting": "Nee", "Omheining": "Ballenvangers", "Omschrijving": "Voetbalveld, kleine doelen, veld ligt verdiept, zitbanken naast veld"}, "TYPE": "punt"}, {"VOLGNR": 220, "LATMAX": 52.3891983, "LNGMAX": 4.9156499, "SELECTIE": "VOETBAL", "LABEL": "VARENWEG", "COORDS": "4.915654,52.389203||", "details": {"Locatie": "Plantsoen", "Sportvoorziening": "Voetbal", "Oppervlak": "331", "image": "http://maps.amsterdam.nl/sport/Downloads/Varenweg_1.jpg", "Ondergrond": "Asfalt", "Verlichting": "Nee", "Omheining": "Kooi gesloten", "Omschrijving": "Voetbalveld, kleine doelen, zitbanken naast veld"}, "TYPE": "punt"}, {"VOLGNR": 221, "LATMAX": 52.3919983, "LNGMAX": 4.9159598, "SELECTIE": "VOETBAL", "LABEL": "ANDOORNSTRAAT", "COORDS": "4.915962,52.391954||", "details": {"Locatie": "Plein", "Sportvoorziening": "Voetbal", "Oppervlak": "260", "image": "http://maps.amsterdam.nl/sport/Downloads/Andoornstraat.jpg", "Ondergrond": "Stoeptegels", "Verlichting": "Nee", "Omheining": "Ballenvangers", "Omschrijving": "Voetbalveld"}, "TYPE": "punt"}, {"VOLGNR": 222, "LATMAX": 52.3916016, "LNGMAX": 4.91401, "SELECTIE": "VOETBAL", "LABEL": "MOSVELD", "COORDS": "4.914012,52.391641||", "details": {"Locatie": "Plantsoen", "Sportvoorziening": "Voetbal", "Oppervlak": "302", "image": "http://maps.amsterdam.nl/sport/Downloads/Mosveld.jpg", "Ondergrond": "Stoeptegels", "Verlichting": "Nee", "Omheining": "Ballenvangers", "Omschrijving": "Voetbalveld, kleine doelen"}, "TYPE": "punt"}, {"VOLGNR": 223, "LATMAX": 52.4005013, "LNGMAX": 4.91189, "SELECTIE": "VOETBAL", "LABEL": "FLORAWEG", "COORDS": "4.91189,52.400503||", "details": {"Locatie": "Schoolplein", "Sportvoorziening": "Voetbal", "Oppervlak": "459", "image": "http://maps.amsterdam.nl/sport/Downloads/Floraweg_1.jpg", "Ondergrond": "Asfalt", "Verlichting": "Nee", "Omheining": "Ballenvangers", "Omschrijving": "Voetbalveld, combi-veld, zitbanken naast veldv"}, "TYPE": "punt"}, {"VOLGNR": 224, "LATMAX": 52.4003983, "LNGMAX": 4.9151802, "SELECTIE": "VOETBAL", "LABEL": "FLORAWEG", "COORDS": "4.915182,52.40039||", "details": {"Locatie": "Plantsoen", "Sportvoorziening": "Voetbal", "Oppervlak": "1842", "image": "http://maps.amsterdam.nl/sport/Downloads/Floraweg_3.jpg", "Ondergrond": "Gras", "Verlichting": "Nee", "Omheining": "Geen", "Omschrijving": "Voetbalveld"}, "TYPE": "punt"}, {"VOLGNR": 225, "LATMAX": 52.3989983, "LNGMAX": 4.9195499, "SELECTIE": "VOETBAL", "LABEL": "FLORAPARKBAD", "COORDS": "4.919547,52.398952||", "details": {"Locatie": "Plantsoen", "Sportvoorziening": "Voetbal", "Oppervlak": "255", "image": "http://maps.amsterdam.nl/sport/Downloads/Floraparkbad.jpg", "Ondergrond": "Asfalt", "Verlichting": "Nee", "Omheining": "Kooi gesloten", "Omschrijving": "Voetbalveld, kleine doelen, combi-veld, zitbanken naast veld"}, "TYPE": "punt"}, {"VOLGNR": 226, "LATMAX": 52.3955002, "LNGMAX": 4.9161901, "SELECTIE": "VOETBAL", "LABEL": "AZALEASTRAAT", "COORDS": "4.916189,52.395496||", "details": {"Locatie": "Schoolplein", "Sportvoorziening": "Voetbal", "Oppervlak": "316", "image": "http://maps.amsterdam.nl/sport/Downloads/Azaleastraat.jpg", "Ondergrond": "Stoeptegels", "Verlichting": "Nee", "Omheining": "Ballenvangers", "Omschrijving": "Voetbaldoel, kleine doelen, zitbanken naast veld"}, "TYPE": "punt"}, {"VOLGNR": 227, "LATMAX": 52.3807983, "LNGMAX": 4.8401599, "SELECTIE": "VOETBAL", "LABEL": "WILTZANGH", "COORDS": "4.840164,52.380781||", "details": {"Locatie": "Schoolplein", "Sportvoorziening": "Voetbal", "Oppervlak": "403", "image": "http://maps.amsterdam.nl/sport/Downloads/Wiltzangh_1.jpg", "Ondergrond": "Asfalt", "Verlichting": "Ja", "Omheining": "Geen", "Omschrijving": "Voetbalveld met belijning, kleine doelen, zitbanken naast veld, combi-veld"}, "TYPE": "punt"}, {"VOLGNR": 229, "LATMAX": 52.3823395, "LNGMAX": 4.8474689, "SELECTIE": "VOETBAL", "LABEL": "DE BOOM", "COORDS": "4.847469,52.382340||", "details": {"Locatie": "Speeltuin", "Sportvoorziening": "Voetbal", "Oppervlak": "464", "image": "http://maps.amsterdam.nl/sport/Downloads/DeBoom.jpg", "Ondergrond": "Stoeptegels", "Verlichting": "Nee", "Omheining": "Gedeeltelijk", "Omschrijving": "Voetbalveld, kleine doelen"}, "TYPE": "punt"}, {"VOLGNR": 230, "LATMAX": 52.3813248, "LNGMAX": 4.8515992, "SELECTIE": "VOETBAL", "LABEL": "HERTSPIEGHELPLEIN", "COORDS": "4.851599,52.381324||", "details": {"Locatie": "Speeltuin", "Sportvoorziening": "Voetbal", "Oppervlak": "1044", "image": "http://maps.amsterdam.nl/sport/Downloads/Hertspieghelplein voetbal.jpg", "Ondergrond": "Kunstgras", "Verlichting": "Ja", "Omheining": "Ballenvangers", "Omschrijving": "Voetbalveld met belijning"}, "TYPE": "punt"}, {"VOLGNR": 231, "LATMAX": 52.3769989, "LNGMAX": 4.8397999, "SELECTIE": "VOETBAL", "LABEL": "ERNEST STAESPLEIN", "COORDS": "4.839799,52.377031||", "details": {"Locatie": "Plein", "Sportvoorziening": "Voetbal", "Oppervlak": "873", "image": "http://maps.amsterdam.nl/sport/Downloads/ErnestStaesplein.jpg", "Ondergrond": "Asfalt", "Verlichting": "Nee", "Omheining": "Ballenvangers", "Omschrijving": "Voetbalveld met belijning, veld ligt verdiept, 1 lange zijde laag dubbelstaafmat hekwerk, zitbanken naast veld"}, "TYPE": "punt"}, {"VOLGNR": 232, "LATMAX": 52.3778229, "LNGMAX": 4.8529382, "SELECTIE": "VOETBAL", "LABEL": "WACHTERLIEDPLANTSOEN", "COORDS": "4.852938,52.377824||", "details": {"Locatie": "Speeltuin", "Sportvoorziening": "Voetbal", "image": "http://maps.amsterdam.nl/sport/Downloads/Wachterliedplantsoen voetbal.JPG", "Ondergrond": "Asfalt", "Verlichting": "Nee", "Omheining": "Ballenvangers", "Omschrijving": "Voetbalveld met belijning, 2 lange zijden laag spijlenhekwerk"}, "TYPE": "punt"}, {"VOLGNR": 233, "LATMAX": 52.3773041, "LNGMAX": 4.8541098, "SELECTIE": "VOETBAL", "LABEL": "WACHTERLIEDPLANTSOEN", "COORDS": "4.854110,52.377304||", "details": {"Locatie": "Speeltuin", "Sportvoorziening": "Voetbal", "Oppervlak": "486", "image": "http://maps.amsterdam.nl/sport/Downloads/Wachterliedplantsoen speeltuin.JPG", "Ondergrond": "Kunstgras", "Verlichting": "Nee", "Omheining": "Ballenvangers", "Omschrijving": "Voetbalveld, kleine doeltjes, verlaagd, zitbanken naast veld"}, "TYPE": "punt"}, {"VOLGNR": 234, "LATMAX": 52.378952, "LNGMAX": 4.8595829, "SELECTIE": "VOETBAL", "LABEL": "KAREL DOORMANPLEIN", "COORDS": "4.859583,52.378952||", "details": {"Locatie": "Schoolplein", "Sportvoorziening": "Voetbal", "Oppervlak": "825", "image": "http://maps.amsterdam.nl/sport/Downloads/DeRuijter_1.jpg", "Ondergrond": "Asfalt", "Verlichting": "Nee", "Omheining": "Ballenvangers", "Omschrijving": "Voetbalveld met belijning, veld ligt verdiept, kleine doelen, 1 lange zijde hoog dubbelstaafmat hekwerk"}, "TYPE": "punt"}, {"VOLGNR": 235, "LATMAX": 52.3759995, "LNGMAX": 4.8565798, "SELECTIE": "VOETBAL", "LABEL": "JOOS BANCKERSWEG", "COORDS": "4.856582,52.376038||", "details": {"Locatie": "Sportpark", "Sportvoorziening": "Voetbal", "Oppervlak": "383", "image": "http://maps.amsterdam.nl/sport/Downloads/JoosBanckersweg_1.jpg", "Ondergrond": "Asfalt", "Verlichting": "Nee", "Omheining": "Ballenvangers", "Omschrijving": "Voetbalveld met belijning, kleine doelen, 1 lange zijde laag dubbelstaafmat hekwerk, combi-veld, ballenvangers (3 zijden)"}, "TYPE": "punt"}, {"VOLGNR": 236, "LATMAX": 52.375, "LNGMAX": 4.8510299, "SELECTIE": "VOETBAL", "LABEL": "ERASMUSPARK", "COORDS": "4.851029,52.375015||", "details": {"Locatie": "Park", "Sportvoorziening": "Voetbal", "Oppervlak": "6104", "image": "http://maps.amsterdam.nl/sport/Downloads/Erasmuspark.jpg", "Ondergrond": "Gras", "Verlichting": "Nee", "Omheining": "Geen", "Omschrijving": "Voetbalveld, zitbanken naast veld"}, "TYPE": "punt"}, {"VOLGNR": 239, "LATMAX": 52.3824272, "LNGMAX": 4.8535538, "SELECTIE": "VOETBAL", "LABEL": "KIJKDUINSTRAAT", "COORDS": "4.853554,52.382427||", "details": {"Locatie": "Plantsoen", "Sportvoorziening": "Voetbal", "Oppervlak": "342", "image": "http://maps.amsterdam.nl/sport/Downloads/Kijkduinstraat voetbal.jpg", "Ondergrond": "Asfalt", "Verlichting": "Nee", "Omheining": "Kooi open", "Omschrijving": "Voetbalveld met kleine doeltjes"}, "TYPE": "punt"}, {"VOLGNR": 240, "LATMAX": 52.3564987, "LNGMAX": 4.9028602, "SELECTIE": "VOETBAL", "LABEL": "HEMONYSTRAAT", "COORDS": "4.902863,52.35649||", "details": {"Locatie": "Straat", "Sportvoorziening": "Voetbal", "Oppervlak": "23", "image": "http://maps.amsterdam.nl/sport/Downloads/Hemonystraat.jpg", "Ondergrond": "Stoeptegels", "Verlichting": "Nee", "Omheining": "Hekwerk laag", "Omschrijving": "Voetbalveld, kleine doelen, zitbanken naast veld"}, "TYPE": "punt"}, {"VOLGNR": 241, "LATMAX": 52.3553009, "LNGMAX": 4.9036999, "SELECTIE": "VOETBAL", "LABEL": "SERVEASNOUTSSTRAAT", "COORDS": "4.903699,52.355271||", "details": {"Locatie": "Plein", "Sportvoorziening": "Voetbal", "Oppervlak": "596", "image": "http://maps.amsterdam.nl/sport/Downloads/Serveasnoutsstraat_1.jpg", "Ondergrond": "Asfalt", "Verlichting": "Nee", "Omheining": "Ballenvangers", "Omschrijving": "Voetbalveld, zitbanken naast veld"}, "TYPE": "punt"}, {"VOLGNR": 242, "LATMAX": 52.3507004, "LNGMAX": 4.9054499, "SELECTIE": "VOETBAL", "LABEL": "SMARAGDPLEIN", "COORDS": "4.905451,52.350695||", "details": {"Locatie": "Plein", "Sportvoorziening": "Voetbal", "Oppervlak": "396", "image": "http://maps.amsterdam.nl/sport/Downloads/Smaragdplein.jpg", "Ondergrond": "Asfalt", "Verlichting": "Nee", "Omheining": "Kooi gesloten", "Omschrijving": "Voetbalveld, combi-veld"}, "TYPE": "punt"}, {"VOLGNR": 243, "LATMAX": 52.3496971, "LNGMAX": 4.9010291, "SELECTIE": "VOETBAL", "LABEL": "RONNERPLEIN", "COORDS": "4.901029,52.349697||", "details": {"Locatie": "Plein", "Sportvoorziening": "Voetbal", "Oppervlak": "323", "image": "http://maps.amsterdam.nl/sport/Downloads/HRomerplein.jpg", "Ondergrond": "Asfalt", "Verlichting": "Nee", "Omheining": "Kooi open", "Omschrijving": "Voetbalveld, kleine doelen, zitbanken naast veld"}, "TYPE": "punt"}, {"VOLGNR": 244, "LATMAX": 52.3515015, "LNGMAX": 4.8983402, "SELECTIE": "VOETBAL", "LABEL": "KEIJSERPLEIN", "COORDS": "4.898339,52.351475||", "details": {"Locatie": "Speeltuin", "Sportvoorziening": "Voetbal", "Oppervlak": "997", "image": "http://maps.amsterdam.nl/sport/Downloads/HdeKeijserplein_1.jpg", "Ondergrond": "Asfalt", "Verlichting": "Ja", "Omheining": "Kooi open", "Omschrijving": "Voetbalveld, combi-veld, speeltuin Henrick de Keijser, zitbanken naast veld"}, "TYPE": "punt"}, {"VOLGNR": 245, "LATMAX": 52.3497009, "LNGMAX": 4.8945398, "SELECTIE": "VOETBAL", "LABEL": "ANSINGHSTRAAT", "COORDS": "4.894543,52.34967||", "details": {"Locatie": "Straat", "Sportvoorziening": "Voetbal", "Oppervlak": "180", "image": "http://maps.amsterdam.nl/sport/Downloads/LAnsinghstraat.jpg", "Ondergrond": "Stoeptegels", "Verlichting": "Nee", "Omheining": "Kooi open", "Omschrijving": "Voetbalveld"}, "TYPE": "punt"}, {"VOLGNR": 247, "LATMAX": 52.3525009, "LNGMAX": 4.8782301, "SELECTIE": "VOETBAL", "LABEL": "OBRECHTPLEIN", "COORDS": "4.878233,52.35254||", "details": {"Locatie": "Schoolplein", "Sportvoorziening": "Voetbal", "Oppervlak": "346", "image": "http://maps.amsterdam.nl/sport/Downloads/JObrechtplein_1.jpg", "Ondergrond": "Asfalt", "Verlichting": "Nee", "Omheining": "Hekwerk", "Omschrijving": "Voetbalveld"}, "TYPE": "punt"}, {"VOLGNR": 248, "LATMAX": 52.3550987, "LNGMAX": 4.8471899, "SELECTIE": "VOETBAL", "LABEL": "BOCKESPRONG", "COORDS": "4.847188,52.355117||", "details": {"Locatie": "Speeltuin", "Sportvoorziening": "Voetbal", "Oppervlak": "1502", "image": "http://maps.amsterdam.nl/sport/Downloads/Bockesprong_1.jpg", "Ondergrond": "Asfalt", "Verlichting": "Nee", "Omheining": "Geen", "Omschrijving": "Voetbalveld, combi-veld"}, "TYPE": "punt"}, {"VOLGNR": 249, "LATMAX": 52.3437004, "LNGMAX": 4.8618398, "SELECTIE": "VOETBAL", "LABEL": "ARGONAUTENSTRAAT", "COORDS": "4.861841,52.34367||", "details": {"Locatie": "Speeltuin", "Sportvoorziening": "Voetbal", "Oppervlak": "1690", "image": "http://maps.amsterdam.nl/sport/Downloads/Olympia_3.jpg", "Ondergrond": "Asfalt", "Verlichting": "Nee", "Omheining": "Hekwerk", "Omschrijving": "Voetbalveld, kleine doelen, zitbanken naast veld"}, "TYPE": "punt"}, {"VOLGNR": 250, "LATMAX": 52.3436012, "LNGMAX": 4.8615799, "SELECTIE": "VOETBAL", "LABEL": "ARGONAUTENSTRAAT", "COORDS": "4.861577,52.343642||", "details": {"Locatie": "Speeltuin", "Sportvoorziening": "Voetbal", "Oppervlak": "796", "image": "http://maps.amsterdam.nl/sport/Downloads/Olympia_1.jpg", "Ondergrond": "Asfalt", "Verlichting": "Nee", "Omheining": "Ballenvangers", "Omschrijving": "Voetbalveld, zitbanken naast veld"}, "TYPE": "punt"}, {"VOLGNR": 251, "LATMAX": 52.3451004, "LNGMAX": 4.8653498, "SELECTIE": "VOETBAL", "LABEL": "KERKENPLEIN", "COORDS": "4.865346,52.345079||", "details": {"Locatie": "Plantsoen", "Sportvoorziening": "Voetbal", "Oppervlak": "388", "image": "http://maps.amsterdam.nl/sport/Downloads/Kerkenplein.jpg", "Ondergrond": "Stoeptegels", "Verlichting": "Nee", "Omheining": "Kooi open", "Omschrijving": "Voetbalveld"}, "TYPE": "punt"}, {"VOLGNR": 252, "LATMAX": 52.3469009, "LNGMAX": 4.8663702, "SELECTIE": "VOETBAL", "LABEL": "OLYMPIAPLEIN", "COORDS": "4.866367,52.346899||", "details": {"Locatie": "Plein", "Sportvoorziening": "Voetbal", "Oppervlak": "468", "image": "http://maps.amsterdam.nl/sport/Downloads/Olympiaplein_1.jpg", "Ondergrond": "Asfalt", "Verlichting": "Ja", "Omheining": "Kooi open", "Omschrijving": "Voetbalveld, zitbanken naast veld"}, "TYPE": "punt"}, {"VOLGNR": 253, "LATMAX": 52.3470993, "LNGMAX": 4.86726, "SELECTIE": "VOETBAL", "LABEL": "OLYMPIAPLEIN", "COORDS": "4.86726,52.347064||", "details": {"Locatie": "Plein", "Sportvoorziening": "Voetbal", "Oppervlak": "101", "image": "http://maps.amsterdam.nl/sport/Downloads/Olympiaplein_3.jpg", "Ondergrond": "Asfalt", "Verlichting": "Ja", "Omheining": "Kooi open", "Omschrijving": "Voetbalveld, kleine doelen, zitbanken naast veld"}, "TYPE": "punt"}, {"VOLGNR": 255, "LATMAX": 52.3471985, "LNGMAX": 4.8634, "SELECTIE": "VOETBAL", "LABEL": "HYGIEAPLEIN", "COORDS": "4.863399,52.347155||", "details": {"Locatie": "Schoolplein", "Sportvoorziening": "Voetbal", "Oppervlak": "468", "image": "http://maps.amsterdam.nl/sport/Downloads/Hygieaplein_1.jpg", "Ondergrond": "Asfalt", "Verlichting": "Nee", "Omheining": "Ballenvangers", "Omschrijving": "Voetbalveld, kleine doelen, zitbanken naast veld"}, "TYPE": "punt"}, {"VOLGNR": 256, "LATMAX": 52.3469009, "LNGMAX": 4.8631501, "SELECTIE": "VOETBAL", "LABEL": "HYGIEAPLEIN", "COORDS": "4.863152,52.34692||", "details": {"Locatie": "Schoolplein", "Sportvoorziening": "Voetbal", "Oppervlak": "403", "image": "http://maps.amsterdam.nl/sport/Downloads/Hygieaplein_2.jpg", "Ondergrond": "Asfalt", "Verlichting": "Nee", "Omheining": "Ballenvangers", "Omschrijving": "Voetbalveld, kleine doelen, combi-veld, zitbanken naast veld"}, "TYPE": "punt"}, {"VOLGNR": 257, "LATMAX": 52.3597984, "LNGMAX": 4.8548102, "SELECTIE": "VOETBAL", "LABEL": "PARAMARIBOPLEIN", "COORDS": "4.854809,52.359771||", "details": {"Locatie": "Plein", "Sportvoorziening": "Voetbal", "Oppervlak": "250", "image": "http://maps.amsterdam.nl/sport/Downloads/Paramariboplein.jpg", "Ondergrond": "Asfalt", "Verlichting": "Nee", "Omheining": "Ballenvangers", "Omschrijving": "Voetbalveld, zitbanken naast veld"}, "TYPE": "punt"}, {"VOLGNR": 258, "LATMAX": 52.3618011, "LNGMAX": 4.8526001, "SELECTIE": "VOETBAL", "LABEL": "CORANTIJNSTRAAT", "COORDS": "4.852597,52.361838||", "details": {"Locatie": "Schoolplein", "Sportvoorziening": "Voetbal", "Oppervlak": "155", "image": "http://maps.amsterdam.nl/sport/Downloads/Corantijnstraat_2.jpg", "Ondergrond": "Stoeptegels", "Verlichting": "Nee", "Omheining": "Ballenvangers", "Omschrijving": "Voetbalveld, kleine doelen, zitbanken naast veld"}, "TYPE": "punt"}, {"VOLGNR": 259, "LATMAX": 52.3646011, "LNGMAX": 4.8505702, "SELECTIE": "VOETBAL", "LABEL": "MIDDELLANDSTRAAT", "COORDS": "4.850568,52.364579||", "details": {"Locatie": "Straat", "Sportvoorziening": "Voetbal", "Oppervlak": "281", "image": "http://maps.amsterdam.nl/sport/Downloads/vMiddellandstraat_2.jpg", "Ondergrond": "Stoeptegels", "Verlichting": "Nee", "Omheining": "Geen", "Omschrijving": "Voetbalveld, kleine doelen, zitbanken naast veld"}, "TYPE": "punt"}, {"VOLGNR": 260, "LATMAX": 52.3699989, "LNGMAX": 4.8465099, "SELECTIE": "VOETBAL", "LABEL": "MERCATOR", "COORDS": "4.846508,52.370043||", "details": {"Locatie": "Speeltuin", "Sportvoorziening": "Voetbal", "Oppervlak": "617", "image": "http://maps.amsterdam.nl/sport/Downloads/Mercator_2.jpg", "Ondergrond": "Asfalt", "Verlichting": "Nee", "Omheining": "Ballenvangers", "Omschrijving": "Voetbalveld met belijning"}, "TYPE": "punt"}, {"VOLGNR": 261, "LATMAX": 52.3711014, "LNGMAX": 4.8520999, "SELECTIE": "VOETBAL", "LABEL": "JAN MAIJENSTRAAT", "COORDS": "4.852104,52.371138||", "details": {"Locatie": "Plein", "Sportvoorziening": "Voetbal", "Oppervlak": "252", "image": "http://maps.amsterdam.nl/sport/Downloads/JanMaijenstraat.jpg", "Ondergrond": "Stoeptegels", "Verlichting": "Nee", "Omheining": "Geen", "Omschrijving": "Voetbalveld, kleine doelen, zitbanken naast veld"}, "TYPE": "punt"}, {"VOLGNR": 262, "LATMAX": 52.3733139, "LNGMAX": 4.8550682, "SELECTIE": "VOETBAL", "LABEL": "VANCOUVERSTRAAT", "COORDS": "4.855068,52.373315||", "details": {"Locatie": "Schoolplein", "Sportvoorziening": "Voetbal", "Oppervlak": "215", "image": "http://maps.amsterdam.nl/sport/Downloads/Vancouverstraat.jpg", "Ondergrond": "Asfalt", "Verlichting": "Nee", "Omheining": "Geen", "Omschrijving": "Voetbalveld, kleine doelen, zitbanken naast veld"}, "TYPE": "punt"}, {"VOLGNR": 263, "LATMAX": 52.3726997, "LNGMAX": 4.8579302, "SELECTIE": "VOETBAL", "LABEL": "PIETER VAN DE DOESSTRAAT", "COORDS": "4.85793,52.372656||", "details": {"Locatie": "Plein", "Sportvoorziening": "Voetbal", "Oppervlak": "327", "image": "http://maps.amsterdam.nl/sport/Downloads/PvdDoesstraat.jpg", "Ondergrond": "Stoeptegels", "Verlichting": "Nee", "Omheining": "Ballenvangers", "Omschrijving": "Voetbalveld, zitbanken naast veld"}, "TYPE": "punt"}, {"VOLGNR": 264, "LATMAX": 52.3742981, "LNGMAX": 4.8612099, "SELECTIE": "VOETBAL", "LABEL": "REINIER CLAESZENPLEIN", "COORDS": "4.861214,52.374324||", "details": {"Locatie": "Plantsoen", "Sportvoorziening": "Voetbal", "Oppervlak": "93", "image": "http://maps.amsterdam.nl/sport/Downloads/RClaeszenplein.jpg", "Ondergrond": "Stoeptegels", "Verlichting": "Nee", "Omheining": "Geen", "Omschrijving": "Voetbalveld, kleine doelen, zitbanken naast veld"}, "TYPE": "punt"}, {"VOLGNR": 265, "LATMAX": 52.3664017, "LNGMAX": 4.8551168, "SELECTIE": "VOETBAL", "LABEL": "COLUMBUSPLEIN", "COORDS": "4.855117,52.366402||", "details": {"Locatie": "Speeltuin", "Sportvoorziening": "Voetbal", "image": "http://maps.amsterdam.nl/sport/Downloads/Columbusplein.JPG", "Ondergrond": "Asfalt", "Verlichting": "Ja", "Omheining": "Ballenvangers", "Omschrijving": "Voetbalveld met belijning, grote en kleine doelen, zitbanken naast veld"}, "TYPE": "punt"}, {"VOLGNR": 266, "LATMAX": 52.3684998, "LNGMAX": 4.85566, "SELECTIE": "VOETBAL", "LABEL": "BALBOAPLEIN", "COORDS": "4.855659,52.368511||", "details": {"Locatie": "Plein", "Sportvoorziening": "Voetbal", "Oppervlak": "795", "image": "http://maps.amsterdam.nl/sport/Downloads/Balboaplein_1.jpg", "Ondergrond": "Asfalt", "Verlichting": "Ja", "Omheining": "Ballenvangers", "Omschrijving": "Voetbalveld met belijning, zitbanken naast veld"}, "TYPE": "punt"}, {"VOLGNR": 267, "LATMAX": 52.3688011, "LNGMAX": 4.8554902, "SELECTIE": "VOETBAL", "LABEL": "BALBOAPLEIN", "COORDS": "4.855494,52.36878||", "details": {"Locatie": "Plein", "Sportvoorziening": "Voetbal", "Oppervlak": "362", "image": "http://maps.amsterdam.nl/sport/Downloads/Balboaplein_2.jpg", "Ondergrond": "Asfalt", "Verlichting": "Nee", "Omheining": "Geen", "Omschrijving": "Voetbalveld met belijning, kleine doelen, zitbanken naast veld"}, "TYPE": "punt"}, {"VOLGNR": 268, "LATMAX": 52.3762016, "LNGMAX": 4.8091898, "SELECTIE": "VOETBAL", "LABEL": "KIERKEGAARDSTRAAT", "COORDS": "4.80919,52.376239||", "details": {"Locatie": "Plantsoen", "Sportvoorziening": "Voetbal", "Oppervlak": "603", "image": "http://maps.amsterdam.nl/sport/Downloads/Kierkegaardstraat.jpg", "Ondergrond": "Gras", "Verlichting": "Nee", "Omheining": "Ballenvangers", "Omschrijving": "Voetbalveld"}, "TYPE": "punt"}, {"VOLGNR": 269, "LATMAX": 52.3778, "LNGMAX": 4.8076401, "SELECTIE": "VOETBAL", "LABEL": "EENDRACHTSPARK", "COORDS": "4.807643,52.377786||", "details": {"Locatie": "Park", "Sportvoorziening": "Voetbal", "Oppervlak": "917", "image": "http://maps.amsterdam.nl/sport/Downloads/Eendrachtspark_3.jpg", "Ondergrond": "Asfalt", "Verlichting": "Ja", "Omheining": "Ballenvangers", "Omschrijving": "Voetbalveld"}, "TYPE": "punt"}, {"VOLGNR": 270, "LATMAX": 52.3793983, "LNGMAX": 4.81529, "SELECTIE": "VOETBAL", "LABEL": "LOUTERPAD", "COORDS": "4.815288,52.379396||", "details": {"Locatie": "Plantsoen", "Sportvoorziening": "Voetbal", "Oppervlak": "1080", "image": "http://maps.amsterdam.nl/sport/Downloads/JdeLouterpad.jpg", "Ondergrond": "Gras", "Verlichting": "Nee", "Omheining": "Geen", "Omschrijving": "Voetbalveld"}, "TYPE": "punt"}, {"VOLGNR": 271, "LATMAX": 52.3811989, "LNGMAX": 4.8034101, "SELECTIE": "VOETBAL", "LABEL": "HASSELAARSSTRAAT", "COORDS": "4.803412,52.381235||", "details": {"Locatie": "Plein", "Sportvoorziening": "Voetbal", "Oppervlak": "268", "image": "http://maps.amsterdam.nl/sport/Downloads/KSHasselaarstraat_2.jpg", "Ondergrond": "Kunstgras", "Verlichting": "Nee", "Omheining": "Ballenvangers", "Omschrijving": "Voetbalveld, zitbanken naast veld"}, "TYPE": "punt"}, {"VOLGNR": 272, "LATMAX": 52.3810997, "LNGMAX": 4.79498, "SELECTIE": "VOETBAL", "LABEL": "CORNELIS", "COORDS": "4.794983,52.38113||", "details": {"Locatie": "Plantsoen", "Sportvoorziening": "Voetbal", "Oppervlak": "372", "image": "http://maps.amsterdam.nl/sport/Downloads/Cornelis.jpg", "Ondergrond": "Asfalt", "Verlichting": "Nee", "Omheining": "Ballenvangers", "Omschrijving": "Voetbalveld met belijning, combi-veld, kleine doelen, zitbanken naast veld"}, "TYPE": "punt"}, {"VOLGNR": 273, "LATMAX": 52.3771019, "LNGMAX": 4.7893701, "SELECTIE": "VOETBAL", "LABEL": "PARK DE KUIL", "COORDS": "4.789368,52.377093||", "details": {"Locatie": "Park", "Sportvoorziening": "Voetbal", "Oppervlak": "3162", "image": "http://maps.amsterdam.nl/sport/Downloads/ParkdeKuil.jpg", "Ondergrond": "Gras", "Verlichting": "Nee", "Omheining": "Geen", "Omschrijving": "Voetbalveld, zitbanken naast veld"}, "TYPE": "punt"}, {"VOLGNR": 274, "LATMAX": 52.3773003, "LNGMAX": 4.7988701, "SELECTIE": "VOETBAL", "LABEL": "BORGESIUSSTRAAT", "COORDS": "4.798866,52.377347||", "details": {"Locatie": "Plein", "Sportvoorziening": "Voetbal", "Oppervlak": "146", "image": "http://maps.amsterdam.nl/sport/Downloads/GBorgesiusstraat.jpg", "Ondergrond": "Stoeptegels", "Verlichting": "Nee", "Omheining": "Ballenvangers", "Omschrijving": "Voetbaldoel"}, "TYPE": "punt"}, {"VOLGNR": 275, "LATMAX": 52.3764, "LNGMAX": 4.7971902, "SELECTIE": "VOETBAL", "LABEL": "KLERKHOF", "COORDS": "4.79719,52.376413||", "details": {"Locatie": "Schoolplein", "Sportvoorziening": "Voetbal", "Oppervlak": "1525", "image": "http://maps.amsterdam.nl/sport/Downloads/MdeKlerkhof_1.jpg", "Ondergrond": "Asfalt", "Verlichting": "Nee", "Omheining": "Ballenvangers", "Omschrijving": "Voetbalveld met belijning, combi-veld, zitbanken naast veld"}, "TYPE": "punt"}, {"VOLGNR": 276, "LATMAX": 52.3745003, "LNGMAX": 4.8123798, "SELECTIE": "VOETBAL", "LABEL": "CONFUCIUSPLEIN", "COORDS": "4.812385,52.374502||", "details": {"Locatie": "Plein", "Sportvoorziening": "Voetbal", "Oppervlak": "305", "image": "http://maps.amsterdam.nl/sport/Downloads/Confuciusplein.jpg", "Ondergrond": "Stoeptegels", "Verlichting": "Nee", "Omheining": "Kooi open", "Omschrijving": "Voetbalveld, combi-veld"}, "TYPE": "punt"}, {"VOLGNR": 277, "LATMAX": 52.3757019, "LNGMAX": 4.8354201, "SELECTIE": "VOETBAL", "LABEL": "CRAMERGRACHT", "COORDS": "4.835425,52.375708||", "details": {"Locatie": "Plantsoen", "Sportvoorziening": "Voetbal", "Oppervlak": "1137", "image": "http://maps.amsterdam.nl/sport/Downloads/BurgCramergracht_1.jpg", "Ondergrond": "Asfalt", "Verlichting": "Nee", "Omheining": "Geen", "Omschrijving": "Voetbalveld, combi-veld"}, "TYPE": "punt"}, {"VOLGNR": 278, "LATMAX": 52.3782005, "LNGMAX": 4.8271599, "SELECTIE": "VOETBAL", "LABEL": "GERBRANDYPARK", "COORDS": "4.827155,52.378167||", "details": {"Locatie": "Park", "Sportvoorziening": "Voetbal", "Oppervlak": "739", "image": "http://maps.amsterdam.nl/sport/Downloads/Gerbrandypark_1.jpg", "Ondergrond": "Gras", "Verlichting": "Nee", "Omheining": "Geen", "Omschrijving": "Voetbalveld"}, "TYPE": "punt"}, {"VOLGNR": 279, "LATMAX": 52.3774986, "LNGMAX": 4.8335099, "SELECTIE": "VOETBAL", "LABEL": "GERBRANDYPARK", "COORDS": "4.833508,52.377487||", "details": {"Locatie": "Park", "Sportvoorziening": "Voetbal", "Oppervlak": "3330", "image": "http://maps.amsterdam.nl/sport/Downloads/Gerbrandypark_2.jpg", "Ondergrond": "Gras", "Verlichting": "Nee", "Omheining": "Geen", "Omschrijving": "Voetbalveld"}, "TYPE": "punt"}, {"VOLGNR": 280, "LATMAX": 52.3818016, "LNGMAX": 4.8257399, "SELECTIE": "VOETBAL", "LABEL": "SLOTERMEER", "COORDS": "4.825743,52.381846||", "details": {"Locatie": "Speeltuin", "Sportvoorziening": "Voetbal", "Oppervlak": "819", "image": "http://maps.amsterdam.nl/sport/Downloads/Slotermeer_2.jpg", "Ondergrond": "Asfalt", "Verlichting": "Nee", "Omheining": "Hekwerk laag", "Omschrijving": "Voetbalveld, combi-veld, kleine doelen, speeltuin Slotermeer"}, "TYPE": "punt"}, {"VOLGNR": 281, "LATMAX": 52.3824005, "LNGMAX": 4.8231702, "SELECTIE": "VOETBAL", "LABEL": "VOSSTRAAT", "COORDS": "4.823165,52.382445||", "details": {"Locatie": "Plantsoen", "Sportvoorziening": "Voetbal", "Oppervlak": "1281", "image": "http://maps.amsterdam.nl/sport/Downloads/DVosstraat.jpg", "Ondergrond": "Gras", "Verlichting": "Nee", "Omheining": "Ballenvangers", "Omschrijving": "Voetbalveld"}, "TYPE": "punt"}, {"VOLGNR": 282, "LATMAX": 52.3827019, "LNGMAX": 4.81989, "SELECTIE": "VOETBAL", "LABEL": "ZWANENBURGHOF", "COORDS": "4.819887,52.382663||", "details": {"Locatie": "Plein", "Sportvoorziening": "Voetbal", "Oppervlak": "418", "image": "http://maps.amsterdam.nl/sport/Downloads/JZwanenburghof.jpg", "Ondergrond": "Stoeptegels", "Verlichting": "Nee", "Omheining": "Ballenvangers", "Omschrijving": "Voetbalveld, zitbanken naast veld"}, "TYPE": "punt"}, {"VOLGNR": 283, "LATMAX": 52.3835983, "LNGMAX": 4.82233, "SELECTIE": "VOETBAL", "LABEL": "SLOTERMEERLAAN", "COORDS": "4.822328,52.383573||", "details": {"Locatie": "Schoolplein", "Sportvoorziening": "Voetbal", "Oppervlak": "276", "image": "http://maps.amsterdam.nl/sport/Downloads/Slotermeerlaan.jpg", "Ondergrond": "Stoeptegels", "Verlichting": "Nee", "Omheining": "Hekwerk laag", "Omschrijving": "Voetbaldoel, klein doel"}, "TYPE": "punt"}, {"VOLGNR": 284, "LATMAX": 52.3541985, "LNGMAX": 4.8031902, "SELECTIE": "VOETBAL", "LABEL": "MONTESSORI", "COORDS": "4.803195,52.354154||", "details": {"Locatie": "Schoolplein", "Sportvoorziening": "Voetbal", "Oppervlak": "295", "image": "http://maps.amsterdam.nl/sport/Downloads/Montessori.jpg", "Ondergrond": "Stoeptegels", "Verlichting": "Nee", "Omheining": "Kooi open", "Omschrijving": "Voetbalveld, zitbanken naast veld"}, "TYPE": "punt"}, {"VOLGNR": 286, "LATMAX": 52.358799, "LNGMAX": 4.8003898, "SELECTIE": "VOETBAL", "LABEL": "HANENBERGSTRAAT", "COORDS": "4.800389,52.358804||", "details": {"Locatie": "Plantsoen", "Sportvoorziening": "Voetbal", "Oppervlak": "194", "image": "http://maps.amsterdam.nl/sport/Downloads/Hanenbergstraat_1.jpg", "Ondergrond": "Stoeptegels", "Verlichting": "Nee", "Omheining": "Hekwerk", "Omschrijving": "Voetbaldoel, combi-veld"}, "TYPE": "punt"}, {"VOLGNR": 287, "LATMAX": 52.3618011, "LNGMAX": 4.8029499, "SELECTIE": "VOETBAL", "LABEL": "REMIJDEN", "COORDS": "4.802948,52.361756||", "details": {"Locatie": "Plantsoen", "Sportvoorziening": "Voetbal", "Oppervlak": "861", "image": "http://maps.amsterdam.nl/sport/Downloads/Remijden_2.jpg", "Ondergrond": "Stoeptegels", "Verlichting": "Nee", "Omheining": "Ballenvangers", "Omschrijving": "Voetbalveld met belijning, zitbanken naast veld"}, "TYPE": "punt"}, {"VOLGNR": 288, "LATMAX": 52.3638, "LNGMAX": 4.8000002, "SELECTIE": "VOETBAL", "LABEL": "VELDZICHT", "COORDS": "4.799999,52.363827||", "details": {"Locatie": "Plantsoen", "Sportvoorziening": "Voetbal", "Oppervlak": "378", "image": "http://maps.amsterdam.nl/sport/Downloads/Veldzicht.jpg", "Ondergrond": "Asfalt", "Verlichting": "Nee", "Omheining": "Kooi open", "Omschrijving": "Voetbalveld"}, "TYPE": "punt"}, {"VOLGNR": 289, "LATMAX": 52.3625984, "LNGMAX": 4.7927599, "SELECTIE": "VOETBAL", "LABEL": "STEELVLIETSTRAAT", "COORDS": "4.792764,52.362577||", "details": {"Locatie": "Plein", "Sportvoorziening": "Voetbal", "Oppervlak": "160", "image": "http://maps.amsterdam.nl/sport/Downloads/Steelvlietstraat_1.jpg", "Ondergrond": "Stoeptegels", "Verlichting": "Nee", "Omheining": "Kooi open", "Omschrijving": "Voetbalveld, zitbanken naast veld"}, "TYPE": "punt"}, {"VOLGNR": 290, "LATMAX": 52.359436, "LNGMAX": 4.7937889, "SELECTIE": "VOETBAL", "LABEL": "BOTTESKERKSINGEL", "COORDS": "4.793789,52.359437||", "details": {"Locatie": "Plantsoen", "Sportvoorziening": "Voetbal", "Oppervlak": "775", "image": "http://maps.amsterdam.nl/sport/Downloads/Botteskerksingel_2.jpg", "Ondergrond": "Stoeptegels", "Verlichting": "Nee", "Omheining": "Ballenvangers", "Omschrijving": "Voetbalveld"}, "TYPE": "punt"}, {"VOLGNR": 291, "LATMAX": 52.3572006, "LNGMAX": 4.7873602, "SELECTIE": "VOETBAL", "LABEL": "SCHUITENHUISSTRAAT", "COORDS": "4.78736,52.357175||", "details": {"Locatie": "Schoolplein", "Sportvoorziening": "Voetbal", "Oppervlak": "389", "image": "http://maps.amsterdam.nl/sport/Downloads/Schuitenhuisstraat_1.jpg", "Ondergrond": "Stoeptegels", "Verlichting": "Nee", "Omheining": "Ballenvangers", "Omschrijving": "Voetbalveld, combi-veld, zitbanken naast veld"}, "TYPE": "punt"}, {"VOLGNR": 292, "LATMAX": 52.3568001, "LNGMAX": 4.7779398, "SELECTIE": "VOETBAL", "LABEL": "TERPSTRAAT", "COORDS": "4.777941,52.356831||", "details": {"Locatie": "Plantsoen", "Sportvoorziening": "Voetbal", "Oppervlak": "659", "image": "http://maps.amsterdam.nl/sport/Downloads/Terpstraat_1.jpg", "Ondergrond": "Gras", "Verlichting": "Nee", "Omheining": "Geen", "Omschrijving": "Voetbalveld"}, "TYPE": "punt"}, {"VOLGNR": 293, "LATMAX": 52.3562012, "LNGMAX": 4.7796202, "SELECTIE": "VOETBAL", "LABEL": "TERPSTRAAT", "COORDS": "4.779624,52.356174||", "details": {"Locatie": "Straat", "Sportvoorziening": "Voetbal", "Oppervlak": "368", "image": "http://maps.amsterdam.nl/sport/Downloads/Terpstraat_2.jpg", "Ondergrond": "Asfalt", "Verlichting": "Nee", "Omheining": "Ballenvangers", "Omschrijving": "Voetbalveld met belijning, kleine doelen, zitbanken naast veld"}, "TYPE": "punt"}, {"VOLGNR": 294, "LATMAX": 52.3541985, "LNGMAX": 4.7779298, "SELECTIE": "VOETBAL", "LABEL": "SEIFERTPLEIN", "COORDS": "4.777933,52.354188||", "details": {"Locatie": "Plein", "Sportvoorziening": "Voetbal", "Oppervlak": "181", "image": "http://maps.amsterdam.nl/sport/Downloads/Seifertplein.jpg", "Ondergrond": "Kunstgras", "Verlichting": "Nee", "Omheining": "Kooi open", "Omschrijving": "Voetbalveld, kleine doelen, zitbanken naast veld"}, "TYPE": "punt"}, {"VOLGNR": 295, "LATMAX": 52.3520012, "LNGMAX": 4.7727699, "SELECTIE": "VOETBAL", "LABEL": "MONTBLANCPLEIN", "COORDS": "4.772768,52.351987||", "details": {"Locatie": "Plantsoen", "Sportvoorziening": "Voetbal", "Oppervlak": "374", "image": "http://maps.amsterdam.nl/sport/Downloads/MontBlancplein.jpg", "Ondergrond": "Kunstgras", "Verlichting": "Nee", "Omheining": "Geen", "Omschrijving": "Voetbalveld, zitbanken naast veld"}, "TYPE": "punt"}, {"VOLGNR": 296, "LATMAX": 52.3506012, "LNGMAX": 4.7750301, "SELECTIE": "VOETBAL", "LABEL": "MONTAROSAPLEIN", "COORDS": "4.775033,52.350569||", "details": {"Locatie": "Schoolplein", "Sportvoorziening": "Voetbal", "Oppervlak": "258", "image": "http://maps.amsterdam.nl/sport/Downloads/MontaRosaplein_1.jpg", "Ondergrond": "Asfalt", "Verlichting": "Nee", "Omheining": "Ballenvangers", "Omschrijving": "Voetbalveld, kleine doelen, zitbanken naast veld"}, "TYPE": "punt"}, {"VOLGNR": 297, "LATMAX": 52.3516998, "LNGMAX": 4.7841902, "SELECTIE": "VOETBAL", "LABEL": "WOORTMANPLEIN", "COORDS": "4.784191,52.351704||", "details": {"Locatie": "Plein", "Sportvoorziening": "Voetbal", "Oppervlak": "321", "image": "http://maps.amsterdam.nl/sport/Downloads/JWoortmanplein.jpg", "Ondergrond": "Asfalt", "Verlichting": "Nee", "Omheining": "Kooi open", "Omschrijving": "Voetbalveld"}, "TYPE": "punt"}, {"VOLGNR": 298, "LATMAX": 52.3476982, "LNGMAX": 4.7837, "SELECTIE": "VOETBAL", "LABEL": "GULDENPROMENADE", "COORDS": "4.783701,52.347738||", "details": {"Locatie": "Plantsoen", "Sportvoorziening": "Voetbal", "Oppervlak": "759", "image": "http://maps.amsterdam.nl/sport/Downloads/Guldenpromenade.jpg", "Ondergrond": "Kunstgras", "Verlichting": "Nee", "Omheining": "Geen", "Omschrijving": "Voetbalveld, zitbanken naast veld"}, "TYPE": "punt"}, {"VOLGNR": 299, "LATMAX": 52.3423004, "LNGMAX": 4.7958398, "SELECTIE": "VOETBAL", "LABEL": "SPEELTUIN SLOTEN", "COORDS": "4.795838,52.342263||", "details": {"Locatie": "Speeltuin", "Sportvoorziening": "Voetbal", "Oppervlak": "917", "image": "http://maps.amsterdam.nl/sport/Downloads/Sloten_2.jpg", "Ondergrond": "Gras", "Verlichting": "Nee", "Omheining": "Geen", "Omschrijving": "Voetbalveld, speeltuin Sloten, zitbanken naast veld"}, "TYPE": "punt"}, {"VOLGNR": 300, "LATMAX": 52.3534012, "LNGMAX": 4.7955699, "SELECTIE": "VOETBAL", "LABEL": "VISSERPLEIN", "COORDS": "4.795573,52.353388||", "details": {"Locatie": "Plein", "Sportvoorziening": "Voetbal", "Oppervlak": "1420", "image": "http://maps.amsterdam.nl/sport/Downloads/LdeVisserplein.jpg", "Ondergrond": "Asfalt", "Verlichting": "Ja", "Omheining": "Kooi open", "Omschrijving": "Voetbalveld met belijning, veld ligt verdiept"}, "TYPE": "punt"}, {"VOLGNR": 301, "LATMAX": 52.3560982, "LNGMAX": 4.7962599, "SELECTIE": "VOETBAL", "LABEL": "HERTINGENSTRAAT", "COORDS": "4.796256,52.356061||", "details": {"Locatie": "Plein", "Sportvoorziening": "Voetbal", "Oppervlak": "451", "image": "http://maps.amsterdam.nl/sport/Downloads/Hertingenstraat.jpg", "Ondergrond": "Asfalt", "Verlichting": "Ja", "Omheining": "Geen", "Omschrijving": "Voetbalveld"}, "TYPE": "punt"}, {"VOLGNR": 302, "LATMAX": 52.3526001, "LNGMAX": 4.81215, "SELECTIE": "VOETBAL", "LABEL": "KUPPERSTRAAT", "COORDS": "4.812154,52.352571||", "details": {"Locatie": "Plantsoen", "Sportvoorziening": "Voetbal", "Oppervlak": "399", "image": "http://maps.amsterdam.nl/sport/Downloads/FKupperstraat_1.jpg", "Ondergrond": "Asfalt", "Verlichting": "Ja", "Omheining": "Ballenvangers", "Omschrijving": "Voetbalveld met belijning, kleine doelen, combi-veld, zitbanken naast veld"}, "TYPE": "punt"}, {"VOLGNR": 303, "LATMAX": 52.3524017, "LNGMAX": 4.8121099, "SELECTIE": "VOETBAL", "LABEL": "KUPPERSTRAAT", "COORDS": "4.812113,52.3524||", "details": {"Locatie": "Plantsoen", "Sportvoorziening": "Voetbal", "Oppervlak": "348", "image": "http://maps.amsterdam.nl/sport/Downloads/FKupperstraat_2.jpg", "Ondergrond": "Asfalt", "Verlichting": "Ja", "Omheining": "Ballenvangers", "Omschrijving": "Voetbalveld, zitbanken naast veld"}, "TYPE": "punt"}, {"VOLGNR": 304, "LATMAX": 52.3713989, "LNGMAX": 4.8688502, "SELECTIE": "VOETBAL", "LABEL": "BILDERDIJK", "COORDS": "4.868854,52.371419||", "details": {"Locatie": "Schoolplein", "Sportvoorziening": "Voetbal", "Oppervlak": "805", "image": "http://maps.amsterdam.nl/sport/Downloads/Bilderdijk_2.jpg", "Ondergrond": "Asfalt", "Verlichting": "Ja", "Omheining": "Hekwerk", "Omschrijving": "Voetbalveld met belijning, veld ligt verdiept, combi-veld, zitbanken naast veld"}, "TYPE": "punt"}, {"VOLGNR": 305, "LATMAX": 52.3706017, "LNGMAX": 4.8733401, "SELECTIE": "VOETBAL", "LABEL": "DACOSTAPLEIN", "COORDS": "4.873343,52.370584||", "details": {"Locatie": "Plein", "Sportvoorziening": "Voetbal", "Oppervlak": "451", "image": "http://maps.amsterdam.nl/sport/Downloads/DaCostaplein.jpg", "Ondergrond": "Asfalt", "Verlichting": "Nee", "Omheining": "Geen", "Omschrijving": "Voetbalveld, kleine doelen, combi-veld, zitbanken naast veld"}, "TYPE": "punt"}, {"VOLGNR": 306, "LATMAX": 52.3646011, "LNGMAX": 4.8653202, "SELECTIE": "VOETBAL", "LABEL": "HILDEBRANDSTRAAT", "COORDS": "4.865322,52.364627||", "details": {"Locatie": "Schoolplein", "Sportvoorziening": "Voetbal", "Oppervlak": "488", "image": "http://maps.amsterdam.nl/sport/Downloads/Hildebrandstraat_1.jpg", "Ondergrond": "Asfalt", "Verlichting": "Nee", "Omheining": "Hekwerk laag", "Omschrijving": "Voetbalveld, veld ligt verdiept, combi-veld, zitbanken naast veld"}, "TYPE": "punt"}, {"VOLGNR": 307, "LATMAX": 52.3652, "LNGMAX": 4.8685298, "SELECTIE": "VOETBAL", "LABEL": "TENKATEPLEIN", "COORDS": "4.868531,52.365171||", "details": {"Locatie": "Plein", "Sportvoorziening": "Voetbal", "Oppervlak": "371", "image": "http://maps.amsterdam.nl/sport/Downloads/TenKateplein.jpg", "Ondergrond": "Stoeptegels", "Verlichting": "Nee", "Omheining": "Hekwerk laag", "Omschrijving": "Voetbalveld, kleine doelen, zitbanken naast veld"}, "TYPE": "punt"}, {"VOLGNR": 308, "LATMAX": 52.359333, "LNGMAX": 4.85776, "SELECTIE": "VOETBAL", "LABEL": "JJ CREMERPLEIN", "COORDS": "4.857760,52.359333||", "details": {"Locatie": "Speeltuin", "Sportvoorziening": "Voetbal", "Oppervlak": "630", "image": "http://maps.amsterdam.nl/sport/Downloads/Westerspeeltuin_2.jpg", "Ondergrond": "Asfalt", "Verlichting": "Nee", "Omheining": "Ballenvangers", "Omschrijving": "Voetbalveld, speeltuin Westerspeeltuin, zitbanken naast veld"}, "TYPE": "punt"}, {"VOLGNR": 309, "LATMAX": 52.3400993, "LNGMAX": 4.80967, "SELECTIE": "VOETBAL", "LABEL": "SPORTPARK SLOTEN OOST", "COORDS": "4.809674,52.340111||", "details": {"Locatie": "Sportpark", "Sportvoorziening": "Voetbal", "Oppervlak": "6404", "image": "http://maps.amsterdam.nl/sport/Downloads/SportparkSlotenOost.jpg", "Ondergrond": "Kunstgras", "Verlichting": "Ja", "Omheining": "Veldafscheiding", "Omschrijving": "Voetbalveld met belijning"}, "TYPE": "punt"}, {"VOLGNR": 311, "LATMAX": 52.3488007, "LNGMAX": 4.8102999, "SELECTIE": "VOETBAL", "LABEL": "KASTERLEEPARK", "COORDS": "4.810295,52.348841||", "details": {"Locatie": "Plantsoen", "Sportvoorziening": "Voetbal", "Oppervlak": "3115", "image": "http://maps.amsterdam.nl/sport/Downloads/Kasterleepark_2.jpg", "Ondergrond": "Gras", "Verlichting": "Nee", "Omheining": "Geen", "Omschrijving": "Voetbalveld"}, "TYPE": "punt"}, {"VOLGNR": 314, "LATMAX": 52.3527985, "LNGMAX": 4.82511, "SELECTIE": "VOETBAL", "LABEL": "WESTERHOVEN", "COORDS": "4.825112,52.352759||", "details": {"Locatie": "Speeltuin", "Sportvoorziening": "Voetbal", "Oppervlak": "796", "image": "http://maps.amsterdam.nl/sport/Downloads/MvWesterhoven_1.jpg", "Ondergrond": "Asfalt", "Verlichting": "Nee", "Omheining": "Ballenvangers", "Omschrijving": "Voetbalveld met belijning, zitbanken naast veld"}, "TYPE": "punt"}, {"VOLGNR": 315, "LATMAX": 52.3597984, "LNGMAX": 4.8322601, "SELECTIE": "VOETBAL", "LABEL": "GEELSTRAAT", "COORDS": "4.83226,52.359821||", "details": {"Locatie": "Plein", "Sportvoorziening": "Voetbal", "Oppervlak": "998", "image": "http://maps.amsterdam.nl/sport/Downloads/JGeelstraat_1.jpg", "Ondergrond": "Asfalt", "Verlichting": "Nee", "Omheining": "Kooi open", "Omschrijving": "Voetbalveld met belijning, combi-veld, zitbanken naast veld"}, "TYPE": "punt"}, {"VOLGNR": 316, "LATMAX": 52.3644981, "LNGMAX": 4.8244901, "SELECTIE": "VOETBAL", "LABEL": "SLOTERPARK", "COORDS": "4.824494,52.364503||", "details": {"Locatie": "Park", "Sportvoorziening": "Voetbal", "Oppervlak": "883", "image": "http://maps.amsterdam.nl/sport/Downloads/Sloterpark_1.jpg", "Ondergrond": "Gras", "Verlichting": "Nee", "Omheining": "Geen", "Omschrijving": "Voetbalveld"}, "TYPE": "punt"}, {"VOLGNR": 317, "LATMAX": 52.3663139, "LNGMAX": 4.838057, "SELECTIE": "VOETBAL", "LABEL": "MONDRIAANPLEIN", "COORDS": "4.838057,52.366315||", "details": {"Locatie": "Plein", "Sportvoorziening": "Voetbal", "Oppervlak": "653", "image": "http://maps.amsterdam.nl/sport/Downloads/Mondriaanplein_Cruyff_Court.jpg", "Ondergrond": "Kunstgras", "Verlichting": "Nee", "Omheining": "Hekwerk", "Omschrijving": "Cruff court Voetbalveld met belijning, zitbanken naast veld"}, "TYPE": "punt"}, {"VOLGNR": 319, "LATMAX": 52.3600006, "LNGMAX": 4.8387899, "SELECTIE": "VOETBAL", "LABEL": "SLUIJTERSTRAAT", "COORDS": "4.83879,52.36004||", "details": {"Locatie": "Plantsoen", "Sportvoorziening": "Voetbal", "Oppervlak": "241", "image": "http://maps.amsterdam.nl/sport/Downloads/JSluijtersstraat.jpg", "Ondergrond": "Kunstgras", "Verlichting": "Nee", "Omheining": "Ballenvangers", "Omschrijving": "Voetbalveld, kleine doelen"}, "TYPE": "punt"}, {"VOLGNR": 320, "LATMAX": 52.3582001, "LNGMAX": 4.83708, "SELECTIE": "VOETBAL", "LABEL": "JONGKINDSTRAAT", "COORDS": "4.83708,52.358243||", "details": {"Locatie": "Plantsoen", "Sportvoorziening": "Voetbal", "Oppervlak": "546", "image": "http://maps.amsterdam.nl/sport/Downloads/JJongkindstraat.jpg", "Ondergrond": "Asfalt", "Verlichting": "Ja", "Omheining": "Ballenvangers", "Omschrijving": "Voetbalveld met belijning, combi-veld, kleine doelen, zitbanken naast veld"}, "TYPE": "punt"}, {"VOLGNR": 321, "LATMAX": 52.3494415, "LNGMAX": 4.839045, "SELECTIE": "VOETBAL", "LABEL": "DELFLANDPLEIN", "COORDS": "4.839045,52.349440||", "details": {"Locatie": "Plein", "Sportvoorziening": "Voetbal", "Oppervlak": "1350", "image": "http://maps.amsterdam.nl/sport/Downloads/Delflandplein_1.jpg", "Ondergrond": "Asfalt", "Verlichting": "Nee", "Omheining": "Kooi open", "Omschrijving": "Voetbalveld met belijning, combi-veld, zitbanken naast veld"}, "TYPE": "punt"}, {"VOLGNR": 322, "LATMAX": 52.3474007, "LNGMAX": 4.8433099, "SELECTIE": "VOETBAL", "LABEL": "HONSELERSDIJKSTRAAT", "COORDS": "4.843305,52.347415||", "details": {"Locatie": "Straat", "Sportvoorziening": "Voetbal", "Oppervlak": "87", "image": "http://maps.amsterdam.nl/sport/Downloads/Honselersdijkstraat.jpg", "Ondergrond": "Stoeptegels", "Verlichting": "Nee", "Omheining": "Hekwerk laag", "Omschrijving": "Voetbalveld, kleine doelen"}, "TYPE": "punt"}, {"VOLGNR": 326, "LATMAX": 52.3810997, "LNGMAX": 4.87043, "SELECTIE": "VOETBAL", "LABEL": "BEUNINGENPLEIN", "COORDS": "4.87043,52.38115||", "details": {"Locatie": "Plein", "Sportvoorziening": "Voetbal", "Oppervlak": "878", "image": "http://maps.amsterdam.nl/sport/Downloads/vBeuningenplein_1.jpg", "Ondergrond": "Asfalt", "Verlichting": "Nee", "Omheining": "Ballenvangers", "Omschrijving": "Voetbalveld, combi-veld"}, "TYPE": "punt"}, {"VOLGNR": 328, "LATMAX": 52.3848, "LNGMAX": 4.8784499, "SELECTIE": "VOETBAL", "LABEL": "BEUNINGENSTRAAT", "COORDS": "4.878451,52.384789||", "details": {"Locatie": "Straat", "Sportvoorziening": "Voetbal", "Oppervlak": "439", "image": "http://maps.amsterdam.nl/sport/Downloads/vBeuningenstraat.jpg", "Ondergrond": "Asfalt", "Verlichting": "Nee", "Omheining": "Ballenvangers", "Omschrijving": "Voetbalveld"}, "TYPE": "punt"}, {"VOLGNR": 329, "LATMAX": 52.3894997, "LNGMAX": 4.8906598, "SELECTIE": "VOETBAL", "LABEL": "BARENTSZPLEIN", "COORDS": "4.890664,52.38946||", "details": {"Locatie": "Speeltuin", "Sportvoorziening": "Voetbal", "Oppervlak": "224", "image": "http://maps.amsterdam.nl/sport/Downloads/Barentszplein_1.jpg", "Ondergrond": "Asfalt", "Verlichting": "Ja", "Omheining": "Kooi open", "Omschrijving": "Voetbalveld, combi-veld, speeltuin Zuiderspeeltuin, zitbanken naast veld"}, "TYPE": "punt"}, {"VOLGNR": 330, "LATMAX": 52.3920212, "LNGMAX": 4.8740301, "SELECTIE": "VOETBAL", "LABEL": "ZAANDAMMERPLEIN", "COORDS": "4.874030,52.392021||", "details": {"Locatie": "Plein", "Sportvoorziening": "Voetbal", "Oppervlak": "482", "image": "http://maps.amsterdam.nl/sport/Downloads/Spaarndammerplantsoen_1.jpg", "Ondergrond": "Asfalt", "Verlichting": "Nee", "Omheining": "Ballenvangers", "Omschrijving": "Voetbalveld met belijning, zitbanken naast veld"}, "TYPE": "punt"}, {"VOLGNR": 334, "LATMAX": 52.3874016, "LNGMAX": 4.8807302, "SELECTIE": "VOETBAL", "LABEL": "NIEUWENHUISPLANTSOEN", "COORDS": "4.880728,52.387351||", "details": {"Locatie": "Plantsoen", "Sportvoorziening": "Voetbal", "Oppervlak": "75", "image": "http://maps.amsterdam.nl/sport/Downloads/Nieuwenhuisplantsoen_2.jpg", "Ondergrond": "Asfalt", "Verlichting": "Nee", "Omheining": "Geen", "Omschrijving": "Voetbalveld, kleine doelen, zitbanken naast veld"}, "TYPE": "punt"}, {"VOLGNR": 335, "LATMAX": 52.3883018, "LNGMAX": 4.88235, "SELECTIE": "VOETBAL", "LABEL": "WESTZAANSTRAAT", "COORDS": "4.882348,52.388293||", "details": {"Locatie": "Straat", "Sportvoorziening": "Voetbal", "Oppervlak": "185", "image": "http://maps.amsterdam.nl/sport/Downloads/Westzaanstraat.jpg", "Ondergrond": "Asfalt", "Verlichting": "Nee", "Omheining": "Kooi gesloten", "Omschrijving": "Voetbalveld, kleine doelen"}, "TYPE": "punt"}, {"VOLGNR": 336, "LATMAX": 52.3101006, "LNGMAX": 4.9636402, "SELECTIE": "VOETBAL", "LABEL": "BULLEWIJKPAD", "COORDS": "4.963636,52.310068||", "details": {"Locatie": "Park", "Sportvoorziening": "Voetbal", "Oppervlak": "4297", "image": "http://maps.amsterdam.nl/sport/Downloads/Bullewijkpad.jpg", "Ondergrond": "Gras", "Verlichting": "Nee", "Omheining": "Ballenvangers", "Omschrijving": "Voetbalveld"}, "TYPE": "punt"}, {"VOLGNR": 337, "LATMAX": 52.3179016, "LNGMAX": 4.9537802, "SELECTIE": "VOETBAL", "LABEL": "ENNALSSTRAAT", "COORDS": "4.953779,52.317897||", "details": {"Locatie": "Plein", "Sportvoorziening": "Voetbal", "Oppervlak": "296", "image": "http://maps.amsterdam.nl/sport/Downloads/MEnnalsstraat.jpg", "Ondergrond": "Asfalt", "Verlichting": "Nee", "Omheining": "Kooi open", "Omschrijving": "Voetbalveld met belijning,combi-veld, zitbanken naast veld"}, "TYPE": "punt"}, {"VOLGNR": 338, "LATMAX": 52.3194008, "LNGMAX": 4.95187, "SELECTIE": "VOETBAL", "LABEL": "REIGERSBOSPAD", "COORDS": "4.951872,52.319445||", "details": {"Locatie": "Plantsoen", "Sportvoorziening": "Voetbal", "Oppervlak": "1211", "image": "http://maps.amsterdam.nl/sport/Downloads/Reigersbospad_1.jpg", "Ondergrond": "Gras", "Verlichting": "Nee", "Omheining": "Geen", "Omschrijving": "Voetbalveld"}, "TYPE": "punt"}, {"VOLGNR": 339, "LATMAX": 52.3203011, "LNGMAX": 4.9534502, "SELECTIE": "VOETBAL", "LABEL": "STRANDVLIETPAD", "COORDS": "4.953447,52.320313||", "details": {"Locatie": "Plantsoen", "Sportvoorziening": "Voetbal", "Oppervlak": "815", "image": "http://maps.amsterdam.nl/sport/Downloads/Strandvlietpad_1.jpg", "Ondergrond": "Stoeptegels", "Verlichting": "Nee", "Omheining": "Geen", "Omschrijving": "Voetbalveld"}, "TYPE": "punt"}, {"VOLGNR": 340, "LATMAX": 52.3218994, "LNGMAX": 4.9455299, "SELECTIE": "VOETBAL", "LABEL": "SHAWSINGEL", "COORDS": "4.945527,52.321866||", "details": {"Locatie": "Plantsoen", "Sportvoorziening": "Voetbal", "Oppervlak": "446", "image": "http://maps.amsterdam.nl/sport/Downloads/BShawsingel_1.jpg", "Ondergrond": "Asfalt", "Verlichting": "Nee", "Omheining": "Ballenvangers", "Omschrijving": "Voetbalveld met belijning"}, "TYPE": "punt"}, {"VOLGNR": 341, "LATMAX": 52.3037987, "LNGMAX": 4.9629002, "SELECTIE": "VOETBAL", "LABEL": "MAARSENHOF", "COORDS": "4.962904,52.303783||", "details": {"Locatie": "Plantsoen", "Sportvoorziening": "Voetbal", "Oppervlak": "1069", "image": "http://maps.amsterdam.nl/sport/Downloads/Maarsenhof.jpg", "Ondergrond": "Gras", "Verlichting": "Nee", "Omheining": "Geen", "Omschrijving": "Voetbalveld, zitbanken naast veld"}, "TYPE": "punt"}, {"VOLGNR": 342, "LATMAX": 52.2965012, "LNGMAX": 4.96733, "SELECTIE": "VOETBAL", "LABEL": "MILLINGENHOF", "COORDS": "4.967327,52.296483||", "details": {"Locatie": "Plantsoen", "Sportvoorziening": "Voetbal", "Oppervlak": "400", "image": "http://maps.amsterdam.nl/sport/Downloads/Millingenhof.jpg", "Ondergrond": "Gras", "Verlichting": "Nee", "Omheining": "Geen", "Omschrijving": "Voetbalveld"}, "TYPE": "punt"}, {"VOLGNR": 343, "LATMAX": 52.2946014, "LNGMAX": 4.9656, "SELECTIE": "VOETBAL", "LABEL": "OMMERENHOF", "COORDS": "4.965601,52.294599||", "details": {"Locatie": "Plantsoen", "Sportvoorziening": "Voetbal", "Oppervlak": "352", "image": "http://maps.amsterdam.nl/sport/Downloads/Ommerenhof.jpg", "Ondergrond": "Stoeptegels", "Verlichting": "Nee", "Omheining": "Ballenvangers", "Omschrijving": "Voetbalveld"}, "TYPE": "punt"}, {"VOLGNR": 344, "LATMAX": 52.2941017, "LNGMAX": 4.9651499, "SELECTIE": "VOETBAL", "LABEL": "TJEPMAPAD", "COORDS": "4.965151,52.294103||", "details": {"Locatie": "Plantsoen", "Sportvoorziening": "Voetbal", "Oppervlak": "836", "image": "http://maps.amsterdam.nl/sport/Downloads/Tjepmapad.jpg", "Ondergrond": "Gras", "Verlichting": "Nee", "Omheining": "Ballenvangers", "Omschrijving": "Voetbalveld, zitbanken naast veld"}, "TYPE": "punt"}, {"VOLGNR": 345, "LATMAX": 52.2924995, "LNGMAX": 4.96838, "SELECTIE": "VOETBAL", "LABEL": "TOUTENBURGSTRAAT", "COORDS": "4.968376,52.292478||", "details": {"Locatie": "Plantsoen", "Sportvoorziening": "Voetbal", "Oppervlak": "824", "image": "http://maps.amsterdam.nl/sport/Downloads/Toutenburgstraat.jpg", "Ondergrond": "Gras", "Verlichting": "Nee", "Omheining": "Geen", "Omschrijving": "Voetbalveld"}, "TYPE": "punt"}, {"VOLGNR": 346, "LATMAX": 52.2911987, "LNGMAX": 4.9682999, "SELECTIE": "VOETBAL", "LABEL": "SALENTEINPAD", "COORDS": "4.968301,52.291184||", "details": {"Locatie": "Plantsoen", "Sportvoorziening": "Voetbal", "Oppervlak": "519", "image": "http://maps.amsterdam.nl/sport/Downloads/Salenteinpad.jpg", "Ondergrond": "Gras", "Verlichting": "Nee", "Omheining": "Geen", "Omschrijving": "Voetbalveld"}, "TYPE": "punt"}, {"VOLGNR": 347, "LATMAX": 52.2902985, "LNGMAX": 4.97153, "SELECTIE": "VOETBAL", "LABEL": "SCHOVENHORSTPAD", "COORDS": "4.971534,52.29027||", "details": {"Locatie": "Plantsoen", "Sportvoorziening": "Voetbal", "Oppervlak": "508", "image": "http://maps.amsterdam.nl/sport/Downloads/Schovenhorstpad.jpg", "Ondergrond": "Asfalt", "Verlichting": "Nee", "Omheining": "Ballenvangers", "Omschrijving": "Voetbalveld met belijning, kleine doelen, zitbanken naast veld"}, "TYPE": "punt"}, {"VOLGNR": 348, "LATMAX": 52.2907982, "LNGMAX": 4.9748402, "SELECTIE": "VOETBAL", "LABEL": "SNODENHOEKPARK", "COORDS": "4.974841,52.290811||", "details": {"Locatie": "Plantsoen", "Sportvoorziening": "Voetbal", "Oppervlak": "1282", "image": "http://maps.amsterdam.nl/sport/Downloads/Snodenhoekpark_1.jpg", "Ondergrond": "Zand", "Verlichting": "Nee", "Omheining": "Geen", "Omschrijving": "Voetbalveld, zitbanken naast veld"}, "TYPE": "punt"}, {"VOLGNR": 349, "LATMAX": 52.2933006, "LNGMAX": 4.97542, "SELECTIE": "VOETBAL", "LABEL": "SCHONERWOERDSTRAAT", "COORDS": "4.975419,52.293321||", "details": {"Locatie": "Plantsoen", "Sportvoorziening": "Voetbal", "Oppervlak": "1193", "image": "http://maps.amsterdam.nl/sport/Downloads/Schonerwoerdstraat_1.jpg", "Ondergrond": "Gras", "Verlichting": "Nee", "Omheining": "Geen", "Omschrijving": "Voetbalveld"}, "TYPE": "punt"}, {"VOLGNR": 350, "LATMAX": 52.2951012, "LNGMAX": 4.9819102, "SELECTIE": "VOETBAL", "LABEL": "SOESTERBERGHOF", "COORDS": "4.981911,52.29506||", "details": {"Locatie": "Plantsoen", "Sportvoorziening": "Voetbal", "Oppervlak": "1478", "image": "http://maps.amsterdam.nl/sport/Downloads/Soesterberghof.jpg", "Ondergrond": "Gras", "Verlichting": "Nee", "Omheining": "Geen", "Omschrijving": "Voetbalveld, kleine doelen"}, "TYPE": "punt"}, {"VOLGNR": 351, "LATMAX": 52.2946014, "LNGMAX": 4.9835901, "SELECTIE": "VOETBAL", "LABEL": "STOUTENBURGGRACHT", "COORDS": "4.983586,52.294616||", "details": {"Locatie": "Plantsoen", "Sportvoorziening": "Voetbal", "Oppervlak": "1101", "image": "http://maps.amsterdam.nl/sport/Downloads/Stoutenburggracht.jpg", "Ondergrond": "Gras", "Verlichting": "Nee", "Omheining": "Geen", "Omschrijving": "Voetbalveld, zitbanken naast veld"}, "TYPE": "punt"}, {"VOLGNR": 352, "LATMAX": 52.2932014, "LNGMAX": 4.9868798, "SELECTIE": "VOETBAL", "LABEL": "WOUDRICHEMSTRAAT", "COORDS": "4.986882,52.293216||", "details": {"Locatie": "Plantsoen", "Sportvoorziening": "Voetbal", "Oppervlak": "1320", "image": "http://maps.amsterdam.nl/sport/Downloads/Woudrichemstraat.jpg", "Ondergrond": "Asfalt", "Verlichting": "Nee", "Omheining": "Ballenvangers", "Omschrijving": "Voetbalveld met belijning"}, "TYPE": "punt"}, {"VOLGNR": 353, "LATMAX": 52.2907982, "LNGMAX": 4.9856, "SELECTIE": "VOETBAL", "LABEL": "DRIESSENSTRAAT", "COORDS": "4.985599,52.290821||", "details": {"Locatie": "Plantsoen", "Sportvoorziening": "Voetbal", "Oppervlak": "1166", "image": "http://maps.amsterdam.nl/sport/Downloads/WDriessenstraat.jpg", "Ondergrond": "Gras", "Verlichting": "Nee", "Omheining": "Geen", "Omschrijving": "Voetbalveld"}, "TYPE": "punt"}, {"VOLGNR": 354, "LATMAX": 52.2901001, "LNGMAX": 4.9920702, "SELECTIE": "VOETBAL", "LABEL": "VOSPAD", "COORDS": "4.99207,52.290052||", "details": {"Locatie": "Plantsoen", "Sportvoorziening": "Voetbal", "Oppervlak": "1763", "image": "http://maps.amsterdam.nl/sport/Downloads/WVospad_1.jpg", "Ondergrond": "Stoeptegels", "Verlichting": "Nee", "Omheining": "Geen", "Omschrijving": "Basketbalpaal"}, "TYPE": "punt"}, {"VOLGNR": 355, "LATMAX": 52.2919006, "LNGMAX": 4.9909401, "SELECTIE": "VOETBAL", "LABEL": "SCHAEFFERPAD", "COORDS": "4.99094,52.291873||", "details": {"Locatie": "Plein", "Sportvoorziening": "Voetbal", "Oppervlak": "587", "image": "http://maps.amsterdam.nl/sport/Downloads/JSchaefferpad_2.jpg", "Ondergrond": "Asfalt", "Verlichting": "Nee", "Omheining": "Kooi gesloten", "Omschrijving": "Voetbalveld, zitbanken naast veld"}, "TYPE": "punt"}, {"VOLGNR": 356, "LATMAX": 52.2997017, "LNGMAX": 4.9966898, "SELECTIE": "VOETBAL", "LABEL": "HOSSTRAAT", "COORDS": "4.99669,52.299693||", "details": {"Locatie": "Plantsoen", "Sportvoorziening": "Voetbal", "Oppervlak": "542", "image": "http://maps.amsterdam.nl/sport/Downloads/HHosstraat.jpg", "Ondergrond": "Gras", "Verlichting": "Nee", "Omheining": "Geen", "Omschrijving": "Voetbaldoel"}, "TYPE": "punt"}, {"VOLGNR": 357, "LATMAX": 52.3009987, "LNGMAX": 4.9993601, "SELECTIE": "VOETBAL", "LABEL": "RIMASTRAAT", "COORDS": "4.999361,52.301041||", "details": {"Locatie": "Plantsoen", "Sportvoorziening": "Voetbal", "Oppervlak": "954", "image": "http://maps.amsterdam.nl/sport/Downloads/LRimastraat.jpg", "Ondergrond": "Zand", "Verlichting": "Nee", "Omheining": "Geen", "Omschrijving": "Voetbalveld"}, "TYPE": "punt"}, {"VOLGNR": 358, "LATMAX": 52.2997017, "LNGMAX": 4.9925299, "SELECTIE": "VOETBAL", "LABEL": "AARNHOUTSSTRAAT", "COORDS": "4.992527,52.299698||", "details": {"Locatie": "Plantsoen", "Sportvoorziening": "Voetbal", "Oppervlak": "917", "image": "http://maps.amsterdam.nl/sport/Downloads/CAarnhoutsstraat.jpg", "Ondergrond": "Zand", "Verlichting": "Nee", "Omheining": "Geen", "Omschrijving": "Voetbalveld"}, "TYPE": "punt"}, {"VOLGNR": 359, "LATMAX": 52.2983017, "LNGMAX": 4.9810801, "SELECTIE": "VOETBAL", "LABEL": "PUIFLIJKPAD", "COORDS": "4.981076,52.298284||", "details": {"Locatie": "Plantsoen", "Sportvoorziening": "Voetbal", "Oppervlak": "821", "image": "http://maps.amsterdam.nl/sport/Downloads/Puiflijkpad.jpg", "Ondergrond": "Gras", "Verlichting": "Nee", "Omheining": "Ballenvangers", "Omschrijving": "Voetbalveld"}, "TYPE": "punt"}, {"VOLGNR": 360, "LATMAX": 52.297699, "LNGMAX": 4.9797502, "SELECTIE": "VOETBAL", "LABEL": "PARKHOF", "COORDS": "4.979747,52.297695||", "details": {"Locatie": "Plein", "Sportvoorziening": "Voetbal", "Oppervlak": "1053", "image": "http://maps.amsterdam.nl/sport/Downloads/Parkhof_1.jpg", "Ondergrond": "Asfalt", "Verlichting": "Nee", "Omheining": "Kooi open", "Omschrijving": "Voetbalveld met belijning"}, "TYPE": "punt"}, {"VOLGNR": 361, "LATMAX": 52.3027, "LNGMAX": 4.9741001, "SELECTIE": "VOETBAL", "LABEL": "REIGERSBOSPAD", "COORDS": "4.974101,52.3027||", "details": {"Locatie": "Park", "Sportvoorziening": "Voetbal", "Oppervlak": "2508", "image": "http://maps.amsterdam.nl/sport/Downloads/Reigersbospad_2.jpg", "Ondergrond": "Gras", "Verlichting": "Nee", "Omheining": "Geen", "Omschrijving": "Voetbalveld"}, "TYPE": "punt"}, {"VOLGNR": 362, "LATMAX": 52.3026009, "LNGMAX": 4.97293, "SELECTIE": "VOETBAL", "LABEL": "REIGERSBOSPAD", "COORDS": "4.972928,52.302632||", "details": {"Locatie": "Park", "Sportvoorziening": "Voetbal", "Oppervlak": "755", "image": "http://maps.amsterdam.nl/sport/Downloads/Reigersbospad_3.jpg", "Ondergrond": "Asfalt", "Verlichting": "Nee", "Omheining": "Hekwerk laag", "Omschrijving": "Voetbalveld met belijning"}, "TYPE": "punt"}, {"VOLGNR": 363, "LATMAX": 52.3028984, "LNGMAX": 4.97156, "SELECTIE": "VOETBAL", "LABEL": "REIGERSBOSPAD", "COORDS": "4.971562,52.302897||", "details": {"Locatie": "Park", "Sportvoorziening": "Voetbal", "Oppervlak": "838", "image": "http://maps.amsterdam.nl/sport/Downloads/Reigersbospad_6.jpg", "Ondergrond": "Gras", "Verlichting": "Nee", "Omheining": "Geen", "Omschrijving": "Voetbalveld"}, "TYPE": "punt"}, {"VOLGNR": 364, "LATMAX": 52.3124008, "LNGMAX": 4.9699001, "SELECTIE": "VOETBAL", "LABEL": "KELBERGEN", "COORDS": "4.969905,52.312374||", "details": {"Locatie": "Park", "Sportvoorziening": "Voetbal", "Oppervlak": "465", "image": "http://maps.amsterdam.nl/sport/Downloads/Kelbergen.jpg", "Ondergrond": "Asfalt", "Verlichting": "Nee", "Omheining": "Ballenvangers", "Omschrijving": "Voetbalveld met belijning"}, "TYPE": "punt"}, {"VOLGNR": 365, "LATMAX": 52.3157997, "LNGMAX": 4.9842401, "SELECTIE": "VOETBAL", "LABEL": "KLIEVERINK", "COORDS": "4.984245,52.315812||", "details": {"Locatie": "Plantsoen", "Sportvoorziening": "Voetbal", "Oppervlak": "1320", "image": "http://maps.amsterdam.nl/sport/Downloads/Klieverink.jpg", "Ondergrond": "Gras", "Verlichting": "Nee", "Omheining": "Geen", "Omschrijving": "Voetbalveld, zitbanken naast veld"}, "TYPE": "punt"}, {"VOLGNR": 366, "LATMAX": 52.321701, "LNGMAX": 4.99194, "SELECTIE": "VOETBAL", "LABEL": "BIJLMERWEIDE", "COORDS": "4.991936,52.321697||", "details": {"Locatie": "Park", "Sportvoorziening": "Voetbal", "Oppervlak": "6057", "image": "http://maps.amsterdam.nl/sport/Downloads/Bijlmerweide_1.jpg", "Ondergrond": "Gras", "Verlichting": "Nee", "Omheining": "Geen", "Omschrijving": "Voetbaldoel"}, "TYPE": "punt"}, {"VOLGNR": 367, "LATMAX": 52.3277016, "LNGMAX": 4.9864402, "SELECTIE": "VOETBAL", "LABEL": "BIJLMERWEIDE", "COORDS": "4.98644,52.327701||", "details": {"Locatie": "Park", "Sportvoorziening": "Voetbal", "Oppervlak": "5954", "image": "http://maps.amsterdam.nl/sport/Downloads/Bijlmerweide_3.jpg", "Ondergrond": "Gras", "Verlichting": "Nee", "Omheining": "Geen", "Omschrijving": "Voetbalveld, zitbanken naast veld"}, "TYPE": "punt"}, {"VOLGNR": 368, "LATMAX": 52.3193016, "LNGMAX": 4.97961, "SELECTIE": "VOETBAL", "LABEL": "KLEIBURG", "COORDS": "4.979608,52.319301||", "details": {"Locatie": "Plantsoen", "Sportvoorziening": "Voetbal", "Oppervlak": "498", "image": "http://maps.amsterdam.nl/sport/Downloads/Kleiburg.jpg", "Ondergrond": "Gras", "Verlichting": "Nee", "Omheining": "Geen", "Omschrijving": "Voetbalveld, kleine doelen"}, "TYPE": "punt"}, {"VOLGNR": 369, "LATMAX": 52.3177986, "LNGMAX": 4.9802699, "SELECTIE": "VOETBAL", "LABEL": "KRAAIENNEST", "COORDS": "4.980267,52.31782||", "details": {"Locatie": "Plein", "Sportvoorziening": "Voetbal", "Oppervlak": "68", "image": "http://maps.amsterdam.nl/sport/Downloads/Kraaiennest_9.jpg", "Ondergrond": "Asfalt", "Verlichting": "Nee", "Omheining": "Hekwerk laag", "Omschrijving": "Voetbalveld, kleine doelen, zitbanken naast veld"}, "TYPE": "punt"}, {"VOLGNR": 370, "LATMAX": 52.3176994, "LNGMAX": 4.9802198, "SELECTIE": "VOETBAL", "LABEL": "KRAAIENNEST", "COORDS": "4.980224,52.317685||", "details": {"Locatie": "Plein", "Sportvoorziening": "Voetbal", "Oppervlak": "142", "image": "http://maps.amsterdam.nl/sport/Downloads/Kraaiennest_10.jpg", "Ondergrond": "Asfalt", "Verlichting": "Nee", "Omheining": "Hekwerk laag", "Omschrijving": "Voetbalveld, kleine doelen, zitbanken naast veld"}, "TYPE": "punt"}, {"VOLGNR": 371, "LATMAX": 52.3158989, "LNGMAX": 4.9716501, "SELECTIE": "VOETBAL", "LABEL": "KORMELINKWEG", "COORDS": "4.971646,52.315885||", "details": {"Locatie": "Plantsoen", "Sportvoorziening": "Voetbal", "Oppervlak": "1454", "image": "http://maps.amsterdam.nl/sport/Downloads/Kormelinkweg.jpg", "Ondergrond": "Gras", "Verlichting": "Nee", "Omheining": "Geen", "Omschrijving": "Voetbalveld"}, "TYPE": "punt"}, {"VOLGNR": 372, "LATMAX": 52.3209991, "LNGMAX": 4.9744301, "SELECTIE": "VOETBAL", "LABEL": "GROENEVEEN", "COORDS": "4.974429,52.321017||", "details": {"Locatie": "Plantsoen", "Sportvoorziening": "Voetbal", "Oppervlak": "1316", "image": "http://maps.amsterdam.nl/sport/Downloads/Groeneveen.jpg", "Ondergrond": "Gras", "Verlichting": "Nee", "Omheining": "Ballenvangers", "Omschrijving": "Voetbalveld"}, "TYPE": "punt"}, {"VOLGNR": 373, "LATMAX": 52.3258018, "LNGMAX": 4.96875, "SELECTIE": "VOETBAL", "LABEL": "GRAVESTEIN", "COORDS": "4.968752,52.325779||", "details": {"Locatie": "Plantsoen", "Sportvoorziening": "Voetbal", "Oppervlak": "1030", "image": "http://maps.amsterdam.nl/sport/Downloads/Gravestein_2.jpg", "Ondergrond": "Gras", "Verlichting": "Nee", "Omheining": "Geen", "Omschrijving": "Voetbalveld"}, "TYPE": "punt"}, {"VOLGNR": 374, "LATMAX": 52.3235016, "LNGMAX": 4.9693999, "SELECTIE": "VOETBAL", "LABEL": "GRAVESTEIN", "COORDS": "4.969404,52.323543||", "details": {"Locatie": "Plantsoen", "Sportvoorziening": "Voetbal", "Oppervlak": "886", "image": "http://maps.amsterdam.nl/sport/Downloads/Gravestein_1.jpg", "Ondergrond": "Gras", "Verlichting": "Nee", "Omheining": "Geen", "Omschrijving": "Voetbalveld"}, "TYPE": "punt"}, {"VOLGNR": 375, "LATMAX": 52.3227005, "LNGMAX": 4.9661899, "SELECTIE": "VOETBAL", "LABEL": "KARTINISTRAAT", "COORDS": "4.966185,52.322687||", "details": {"Locatie": "Plantsoen", "Sportvoorziening": "Voetbal", "Oppervlak": "469", "image": "http://maps.amsterdam.nl/sport/Downloads/RAKartinistraat_1.jpg", "Ondergrond": "Asfalt", "Verlichting": "Nee", "Omheining": "Ballenvangers", "Omschrijving": "Voetbalveld combi-veld, zitbanken naast veld"}, "TYPE": "punt"}, {"VOLGNR": 376, "LATMAX": 52.3189011, "LNGMAX": 4.9663501, "SELECTIE": "VOETBAL", "LABEL": "GULDENKRUISPAD", "COORDS": "4.966353,52.318922||", "details": {"Locatie": "Plantsoen", "Sportvoorziening": "Voetbal", "Oppervlak": "577", "image": "http://maps.amsterdam.nl/sport/Downloads/Guldenkruispad_1.jpg", "Ondergrond": "Stoeptegels", "Verlichting": "Nee", "Omheining": "Ballenvangers", "Omschrijving": "Voetbalveld, zitbanken naast veld"}, "TYPE": "punt"}, {"VOLGNR": 377, "LATMAX": 52.3647995, "LNGMAX": 4.9313998, "SELECTIE": "VOETBAL", "LABEL": "BANKASTRAAT", "COORDS": "4.931401,52.364845||", "details": {"Locatie": "Straat", "Sportvoorziening": "Voetbal", "Oppervlak": "292", "image": "http://maps.amsterdam.nl/sport/Downloads/Bankastraat_1.jpg", "Ondergrond": "Stoeptegels", "Verlichting": "Nee", "Omheining": "Kooi open", "Omschrijving": "Voetbalveld"}, "TYPE": "punt"}, {"VOLGNR": 378, "LATMAX": 52.3600998, "LNGMAX": 4.9332299, "SELECTIE": "VOETBAL", "LABEL": "MINAHASSASTRAAT", "COORDS": "4.933226,52.360107||", "details": {"Locatie": "Straat", "Sportvoorziening": "Voetbal", "Oppervlak": "106", "image": "http://maps.amsterdam.nl/sport/Downloads/Minahassastraat.jpg", "Ondergrond": "Stoeptegels", "Verlichting": "Nee", "Omheining": "Ballenvangers", "Omschrijving": "Voetbaldoel, combi-veld"}, "TYPE": "punt"}, {"VOLGNR": 379, "LATMAX": 52.3606987, "LNGMAX": 4.9412098, "SELECTIE": "VOETBAL", "LABEL": "BATAVIA", "COORDS": "4.941206,52.360739||", "details": {"Locatie": "Speeltuin", "Sportvoorziening": "Voetbal", "Oppervlak": "541", "image": "http://maps.amsterdam.nl/sport/Downloads/Batavia_1.jpg", "Ondergrond": "Asfalt", "Verlichting": "Nee", "Omheining": "Ballenvangers", "Omschrijving": "Voetbalveld met belijning, speeltuin Batavia"}, "TYPE": "punt"}, {"VOLGNR": 380, "LATMAX": 52.3599014, "LNGMAX": 4.9429002, "SELECTIE": "VOETBAL", "LABEL": "SUMATRAPLANTSOEN", "COORDS": "4.942902,52.35991||", "details": {"Locatie": "Plein", "Sportvoorziening": "Voetbal", "Oppervlak": "605", "image": "http://maps.amsterdam.nl/sport/Downloads/Sumatraplantsoen_1.jpg", "Ondergrond": "Asfalt", "Verlichting": "Nee", "Omheining": "Geen", "Omschrijving": "Voetbalveld met belijning, zitbanken naast veld"}, "TYPE": "punt"}, {"VOLGNR": 381, "LATMAX": 52.3582993, "LNGMAX": 4.9534001, "SELECTIE": "VOETBAL", "LABEL": "JEUGDLAND", "COORDS": "4.953399,52.358322||", "details": {"Locatie": "Sportpark", "Sportvoorziening": "Voetbal", "Oppervlak": "2334", "image": "http://maps.amsterdam.nl/sport/Downloads/Jeugdland_2.jpg", "Ondergrond": "Kunstgras", "Verlichting": "Ja", "Omheining": "Veldafscheiding", "Omschrijving": "Voetbalveld met belijning, lange zijden veld hebben ook kleine doelen"}, "TYPE": "punt"}, {"VOLGNR": 382, "LATMAX": 52.3638992, "LNGMAX": 4.9467502, "SELECTIE": "VOETBAL", "LABEL": "KRAMATWEG", "COORDS": "4.946753,52.36387||", "details": {"Locatie": "Plantsoen", "Sportvoorziening": "Voetbal", "Oppervlak": "865", "image": "http://maps.amsterdam.nl/sport/Downloads/Kramatweg_1.jpg", "Ondergrond": "Asfalt", "Verlichting": "Nee", "Omheining": "Geen", "Omschrijving": "Voetbalveld met belijning"}, "TYPE": "punt"}, {"VOLGNR": 383, "LATMAX": 52.364399, "LNGMAX": 4.94135, "SELECTIE": "VOETBAL", "LABEL": "MAKASSERPLEIN", "COORDS": "4.941345,52.36438||", "details": {"Locatie": "Plein", "Sportvoorziening": "Voetbal", "Oppervlak": "613", "image": "http://maps.amsterdam.nl/sport/Downloads/Makasserplein_1.jpg", "Ondergrond": "Asfalt", "Verlichting": "Ja", "Omheining": "Ballenvangers", "Omschrijving": "Voetbalveld, veld ligt verdiept"}, "TYPE": "punt"}, {"VOLGNR": 384, "LATMAX": 52.3678017, "LNGMAX": 4.9425001, "SELECTIE": "VOETBAL", "LABEL": "HILDO KROPPLEIN", "COORDS": "4.9425,52.367799||", "details": {"Locatie": "Plantsoen", "Sportvoorziening": "Voetbal", "Oppervlak": "671", "image": "http://maps.amsterdam.nl/sport/Downloads/HildoKropplein_1.jpg", "Ondergrond": "Asfalt", "Verlichting": "Ja", "Omheining": "Ballenvangers", "Omschrijving": "Voetbalveld, veld ligt verdiept, zitbanken naast veld, combi-veld"}, "TYPE": "punt"}, {"VOLGNR": 385, "LATMAX": 52.3712997, "LNGMAX": 4.9391298, "SELECTIE": "VOETBAL", "LABEL": "BORNEOLAAN", "COORDS": "4.939132,52.371337||", "details": {"Locatie": "Straat", "Sportvoorziening": "Voetbal", "Oppervlak": "222", "image": "http://maps.amsterdam.nl/sport/Downloads/Borneolaan.jpg", "Ondergrond": "Asfalt", "Verlichting": "Ja", "Omheining": "Kooi gesloten", "Omschrijving": "Voetbalveld, tevens basketbalveld, zitbanken naast veld, combi-veld"}, "TYPE": "punt"}, {"VOLGNR": 386, "LATMAX": 52.3735008, "LNGMAX": 4.9344301, "SELECTIE": "VOETBAL", "LABEL": "RIETLANDPARK", "COORDS": "4.934425,52.373539||", "details": {"Locatie": "Plantsoen", "Sportvoorziening": "Voetbal", "Oppervlak": "245", "image": "http://maps.amsterdam.nl/sport/Downloads/Rietlandpark_2.jpg", "Ondergrond": "Asfalt", "Verlichting": "Nee", "Omheining": "Kooi gesloten", "Omschrijving": "Voetbalveld, kleine doelen, zitbanken naast veld"}, "TYPE": "punt"}, {"VOLGNR": 387, "LATMAX": 52.3745003, "LNGMAX": 4.94486, "SELECTIE": "VOETBAL", "LABEL": "ERTSKADE", "COORDS": "4.944856,52.374504||", "details": {"Locatie": "Plantsoen", "Sportvoorziening": "Voetbal", "Oppervlak": "1267", "image": "http://maps.amsterdam.nl/sport/Downloads/Ertskade.jpg", "Ondergrond": "Gras", "Verlichting": "Nee", "Omheining": "Ballenvangers", "Omschrijving": "Voetbalveld, zitbanken naast veld"}, "TYPE": "punt"}, {"VOLGNR": 388, "LATMAX": 52.3765984, "LNGMAX": 4.94278, "SELECTIE": "VOETBAL", "LABEL": "LEVANTPLEIN", "COORDS": "4.942779,52.376608||", "details": {"Locatie": "Plein", "Sportvoorziening": "Voetbal", "Oppervlak": "1304", "image": "http://maps.amsterdam.nl/sport/Downloads/Levantplein.jpg", "Ondergrond": "Asfalt", "Verlichting": "Ja", "Omheining": "Geen", "Omschrijving": "Voetbalveld met belijning, veld ligt verdiept, zitbanken naast veld"}, "TYPE": "punt"}, {"VOLGNR": 389, "LATMAX": 52.3799019, "LNGMAX": 4.9222999, "SELECTIE": "VOETBAL", "LABEL": "SUMATRAKADE", "COORDS": "4.922302,52.379936||", "details": {"Locatie": "Plein", "Sportvoorziening": "Voetbal", "Oppervlak": "509", "image": "http://maps.amsterdam.nl/sport/Downloads/Sumatrakade_1.jpg", "Ondergrond": "Asfalt", "Verlichting": "Ja", "Omheining": "Ballenvangers", "Omschrijving": "Voetbalveld met belijning"}, "TYPE": "punt"}, {"VOLGNR": 390, "LATMAX": 52.3636017, "LNGMAX": 4.9298301, "SELECTIE": "VOETBAL", "LABEL": "WAGENAARSTRAAT", "COORDS": "4.929828,52.363626||", "details": {"Locatie": "Straat", "Sportvoorziening": "Voetbal", "Oppervlak": "237", "image": "http://maps.amsterdam.nl/sport/Downloads/Wagenaarstraat.jpg", "Ondergrond": "Stoeptegels", "Verlichting": "Nee", "Omheining": "Kooi open", "Omschrijving": "Voetbalveld, zitbanken naast veld, combi-veld"}, "TYPE": "punt"}, {"VOLGNR": 391, "LATMAX": 52.3614006, "LNGMAX": 4.9257898, "SELECTIE": "VOETBAL", "LABEL": "DWARSSTRAAT", "COORDS": "4.925785,52.361417||", "details": {"Locatie": "Schoolplein", "Sportvoorziening": "Voetbal", "Oppervlak": "331", "image": "http://maps.amsterdam.nl/sport/Downloads/SDwarsstraat.jpg", "Ondergrond": "Asfalt", "Verlichting": "Nee", "Omheining": "Ballenvangers", "Omschrijving": "Voetbalveld, kleine doelen, zitbanken naast veld, ballenvangers (1 zijde)"}, "TYPE": "punt"}, {"VOLGNR": 393, "LATMAX": 52.3599014, "LNGMAX": 4.9126601, "SELECTIE": "VOETBAL", "LABEL": "BOERHAVEPLEIN", "COORDS": "4.912661,52.359936||", "details": {"Locatie": "Plein", "Sportvoorziening": "Voetbal", "Oppervlak": "690", "image": "http://maps.amsterdam.nl/sport/Downloads/Boerhaveplein.jpg", "Ondergrond": "Stoeptegels", "Verlichting": "Nee", "Omheining": "Geen", "Omschrijving": "Voetbalveld, kleine doelen, zitbanken naast veld"}, "TYPE": "punt"}, {"VOLGNR": 394, "LATMAX": 52.3594017, "LNGMAX": 4.9075198, "SELECTIE": "VOETBAL", "LABEL": "MAURITSSTRAAT", "COORDS": "4.907515,52.359376||", "details": {"Locatie": "Plantsoen", "Sportvoorziening": "Voetbal", "Oppervlak": "312", "image": "http://maps.amsterdam.nl/sport/Downloads/Mauritsstraat.jpg", "Ondergrond": "Stoeptegels", "Verlichting": "Nee", "Omheining": "Kooi open", "Omschrijving": "Voetbalveld"}, "TYPE": "punt"}, {"VOLGNR": 395, "LATMAX": 52.3553009, "LNGMAX": 4.9188499, "SELECTIE": "VOETBAL", "LABEL": "MARITZSTRAAT", "COORDS": "4.918846,52.355296||", "details": {"Locatie": "Plantsoen", "Sportvoorziening": "Voetbal", "Oppervlak": "535", "image": "http://maps.amsterdam.nl/sport/Downloads/Maritzstraat_1.jpg", "Ondergrond": "Asfalt", "Verlichting": "Ja", "Omheining": "Ballenvangers", "Omschrijving": "Voetbalveld met belijning, combi-veld"}, "TYPE": "punt"}, {"VOLGNR": 396, "LATMAX": 52.3535004, "LNGMAX": 4.91681, "SELECTIE": "VOETBAL", "LABEL": "TRANSVAALKWARTIER", "COORDS": "4.91681,52.353518||", "details": {"Locatie": "Speeltuin", "Sportvoorziening": "Voetbal", "Oppervlak": "1114", "image": "http://maps.amsterdam.nl/sport/Downloads/Transvaalkwartier_1.jpg", "Ondergrond": "Asfalt", "Verlichting": "Nee", "Omheining": "Ballenvangers", "Omschrijving": "Voetbalveld met belijning, speeltuin Transvaalkwartier, zitbanken naast veld, combi-veld"}, "TYPE": "punt"}, {"VOLGNR": 397, "LATMAX": 52.3538017, "LNGMAX": 4.92307, "SELECTIE": "VOETBAL", "LABEL": "TRANSVAALPLEIN", "COORDS": "4.923074,52.353848||", "details": {"Locatie": "Plein", "Sportvoorziening": "Voetbal", "Oppervlak": "308", "image": "http://maps.amsterdam.nl/sport/Downloads/Transvaalplein.jpg", "Ondergrond": "Asfalt", "Verlichting": "Nee", "Omheining": "Geen", "Omschrijving": "Voetbalveld, veld ligt verdiept, kleine doelen, zitbanken naast veld"}, "TYPE": "punt"}, {"VOLGNR": 398, "LATMAX": 52.3582001, "LNGMAX": 4.9300799, "SELECTIE": "VOETBAL", "LABEL": "POLDERWEG", "COORDS": "4.930075,52.358189||", "details": {"Locatie": "Straat", "Sportvoorziening": "Voetbal", "Oppervlak": "400", "image": "http://maps.amsterdam.nl/sport/Downloads/Polderweg_1.jpg", "Ondergrond": "Asfalt", "Verlichting": "Nee", "Omheining": "Kooi open", "Omschrijving": "Voetbalveld, kleine doelen, combi-veld"}, "TYPE": "punt"}, {"VOLGNR": 399, "LATMAX": 52.3560982, "LNGMAX": 4.9308901, "SELECTIE": "VOETBAL", "LABEL": "LINNAEUSKADE", "COORDS": "4.930889,52.356125||", "details": {"Locatie": "Plantsoen", "Sportvoorziening": "Voetbal", "Oppervlak": "145", "image": "http://maps.amsterdam.nl/sport/Downloads/Linnaeuskade.jpg", "Ondergrond": "Stoeptegels", "Verlichting": "Nee", "Omheining": "Kooi open", "Omschrijving": "Voetbalveld, zitbanken naast veld, combi-veld"}, "TYPE": "punt"}, {"VOLGNR": 400, "LATMAX": 52.3511009, "LNGMAX": 4.9367199, "SELECTIE": "VOETBAL", "LABEL": "FRAUNHOFERSTRAAT", "COORDS": "4.936723,52.351105||", "details": {"Locatie": "Plein", "Sportvoorziening": "Voetbal", "Oppervlak": "316", "image": "http://maps.amsterdam.nl/sport/Downloads/Fraunhoferstraat.jpg", "Ondergrond": "Stoeptegels", "Verlichting": "Ja", "Omheining": "Kooi open", "Omschrijving": "Voetbalveld, zitbanken naast veld"}, "TYPE": "punt"}, {"VOLGNR": 401, "LATMAX": 52.3516998, "LNGMAX": 4.9393601, "SELECTIE": "VOETBAL", "LABEL": "LINNAEUSPARKKWARTIER", "COORDS": "4.939359,52.351745||", "details": {"Locatie": "Speeltuin", "Sportvoorziening": "Voetbal", "Oppervlak": "842", "image": "http://maps.amsterdam.nl/sport/Downloads/Linnaeusparkkwartier_1.jpg", "Ondergrond": "Asfalt", "Verlichting": "Nee", "Omheining": "Ballenvangers", "Omschrijving": "Voetbalveld met belijning, speeltuin Linnaeusparkkwartier, zitbanken naast het veld, combi-veld"}, "TYPE": "punt"}, {"VOLGNR": 402, "LATMAX": 52.347599, "LNGMAX": 4.9345398, "SELECTIE": "VOETBAL", "LABEL": "OSTWALDSTRAAT", "COORDS": "4.934542,52.347646||", "details": {"Locatie": "Plantsoen", "Sportvoorziening": "Voetbal", "Oppervlak": "716", "image": "http://maps.amsterdam.nl/sport/Downloads/Ostwaldstraat_1.jpg", "Ondergrond": "Asfalt", "Verlichting": "Ja", "Omheining": "Hekwerk laag", "Omschrijving": "Voetbalveld met belijning, zitbanken naast veld"}, "TYPE": "punt"}, {"VOLGNR": 403, "LATMAX": 52.3391991, "LNGMAX": 4.9481101, "SELECTIE": "VOETBAL", "LABEL": "SPEELTUINOOST", "COORDS": "4.948113,52.339159||", "details": {"Locatie": "Speeltuin", "Sportvoorziening": "Voetbal", "Oppervlak": "1421", "image": "http://maps.amsterdam.nl/sport/Downloads/SpeeltuinOost_1.jpg", "Ondergrond": "Asfalt", "Verlichting": "Ja", "Omheining": "Ballenvangers", "Omschrijving": "Voetbalveld met belijning, speeltuin Oost, zitbanken naast veld"}, "TYPE": "punt"}, {"VOLGNR": 404, "LATMAX": 52.3432999, "LNGMAX": 4.9212298, "SELECTIE": "VOETBAL", "LABEL": "RUSTHOFSTRAAT", "COORDS": "4.921232,52.343343||", "details": {"Locatie": "Plantsoen", "Sportvoorziening": "Voetbal", "Oppervlak": "532", "image": "http://maps.amsterdam.nl/sport/Downloads/Rusthofstraat_1.jpg", "Ondergrond": "Asfalt", "Verlichting": "Nee", "Omheining": "Ballenvangers", "Omschrijving": "Voetbalveld met belijning, zitbanken naast veld"}, "TYPE": "punt"}, {"VOLGNR": 405, "LATMAX": 52.3521996, "LNGMAX": 4.9247098, "SELECTIE": "VOETBAL", "LABEL": "DONBOSCO", "COORDS": "4.924706,52.352219||", "details": {"Locatie": "Speeltuin", "Sportvoorziening": "Voetbal", "Oppervlak": "476", "image": "http://maps.amsterdam.nl/sport/Downloads/DonBosco_1.jpg", "Ondergrond": "Asfalt", "Verlichting": "Nee", "Omheining": "Ballenvangers", "Omschrijving": "Voetbalveld, speeltuin Don Bosco, zitbanken naast veld, combi-veld"}, "TYPE": "punt"}, {"VOLGNR": 406, "LATMAX": 52.3722992, "LNGMAX": 4.90413, "SELECTIE": "VOETBAL", "LABEL": "WAAG", "COORDS": "4.90413,52.372323||", "details": {"Locatie": "Speeltuin", "Sportvoorziening": "Voetbal", "Oppervlak": "553", "image": "http://maps.amsterdam.nl/sport/Downloads/DeWaag.jpg", "Ondergrond": "Stoeptegels", "Verlichting": "Nee", "Omheining": "Kooi gesloten", "Omschrijving": "Voetbalveld, speeltuin De Waag, zitbanken naast veld"}, "TYPE": "punt"}, {"VOLGNR": 407, "LATMAX": 52.3806, "LNGMAX": 4.8930202, "SELECTIE": "VOETBAL", "LABEL": "PYRAMIDE", "COORDS": "4.893025,52.38059||", "details": {"Locatie": "Speeltuin", "Sportvoorziening": "Voetbal", "Oppervlak": "931", "image": "http://maps.amsterdam.nl/sport/Downloads/Pyramide_1.jpg", "Ondergrond": "Asfalt", "Verlichting": "Nee", "Omheining": "Kooi open", "Omschrijving": "Voetbalveld met belijning, speeltuin Pyramide, zitbanken naast veld, combi-veld"}, "TYPE": "punt"}, {"VOLGNR": 408, "LATMAX": 52.3792, "LNGMAX": 4.8822999, "SELECTIE": "VOETBAL", "LABEL": "NOORDERSPEELTUIN", "COORDS": "4.882305,52.379179||", "details": {"Locatie": "Speeltuin", "Sportvoorziening": "Voetbal", "Oppervlak": "742", "image": "http://maps.amsterdam.nl/sport/Downloads/NoorderSpeeltuin_1.jpg", "Ondergrond": "Asfalt", "Verlichting": "Nee", "Omheining": "Ballenvangers", "Omschrijving": "Voetbalveld met belijning, speeltuin NoorderSpeeltuin, zitbanken naast veld, combi-veld"}, "TYPE": "punt"}, {"VOLGNR": 409, "LATMAX": 52.3712006, "LNGMAX": 4.87567, "SELECTIE": "VOETBAL", "LABEL": "GROENMARKTKADE", "COORDS": "4.87567,52.371197||", "details": {"Locatie": "Plein", "Sportvoorziening": "Voetbal", "Oppervlak": "207", "image": "http://maps.amsterdam.nl/sport/Downloads/Groenmarktkade.jpg", "Ondergrond": "Stoeptegels", "Verlichting": "Nee", "Omheining": "Kooi gesloten", "Omschrijving": "Voetbalveld, zitbanken naast veld, combi-veld"}, "TYPE": "punt"}, {"VOLGNR": 410, "LATMAX": 52.3586998, "LNGMAX": 4.8923702, "SELECTIE": "VOETBAL", "LABEL": "UJKLAREN", "COORDS": "4.892373,52.358676||", "details": {"Locatie": "Speeltuin", "Sportvoorziening": "Voetbal", "Oppervlak": "529", "image": "http://maps.amsterdam.nl/sport/Downloads/UJKlaren_1.jpg", "Ondergrond": "Stoeptegels", "Verlichting": "Nee", "Omheining": "Ballenvangers", "Omschrijving": "Voetbalveld, speeltuin U J Klaren, zitbanken naast veld"}, "TYPE": "punt"}, {"VOLGNR": 411, "LATMAX": 52.3624001, "LNGMAX": 4.8975301, "SELECTIE": "VOETBAL", "LABEL": "AMSTELVELD", "COORDS": "4.897529,52.362382||", "details": {"Locatie": "Plein", "Sportvoorziening": "Voetbal", "Oppervlak": "1805", "image": "http://maps.amsterdam.nl/sport/Downloads/Amstelveld.jpg", "Ondergrond": "Stoeptegels", "Verlichting": "Nee", "Omheining": "Geen", "Omschrijving": "Voetbalveld, zitbanken naast veld"}, "TYPE": "punt"}, {"VOLGNR": 412, "LATMAX": 52.3670998, "LNGMAX": 4.92101, "SELECTIE": "VOETBAL", "LABEL": "GESCHUTSWERF", "COORDS": "4.921013,52.367079||", "details": {"Locatie": "Plein", "Sportvoorziening": "Voetbal", "Oppervlak": "712", "image": "http://maps.amsterdam.nl/sport/Downloads/Geschutswerf_1.jpg", "Ondergrond": "Asfalt", "Verlichting": "Nee", "Omheining": "Kooi gesloten", "Omschrijving": "Voetbalveld, zitbanken naast veld, combi-veld"}, "TYPE": "punt"}, {"VOLGNR": 413, "LATMAX": 52.3725014, "LNGMAX": 4.92416, "SELECTIE": "VOETBAL", "LABEL": "WITTENBURG", "COORDS": "4.924157,52.372465||", "details": {"Locatie": "Plein", "Sportvoorziening": "Voetbal", "Oppervlak": "717", "image": "http://maps.amsterdam.nl/sport/Downloads/Wittenburg.jpg", "Ondergrond": "Asfalt", "Verlichting": "Nee", "Omheining": "Ballenvangers", "Omschrijving": "Voetbalveld met belijning, zitbanken naast veld"}, "TYPE": "punt"}, {"VOLGNR": 414, "LATMAX": 52.3708992, "LNGMAX": 4.9294, "SELECTIE": "VOETBAL", "LABEL": "OOSTENBURGKADE", "COORDS": "4.929401,52.370868||", "details": {"Locatie": "Plantsoen", "Sportvoorziening": "Voetbal", "Oppervlak": "383", "image": "http://maps.amsterdam.nl/sport/Downloads/Oostenburgerkade.jpg", "Ondergrond": "Asfalt", "Verlichting": "Nee", "Omheining": "Ballenvangers", "Omschrijving": "Voetbalveld, zitbanken naast veld, ballenvangers (3 zijden)"}, "TYPE": "punt"}, {"VOLGNR": 415, "LATMAX": 52.3741989, "LNGMAX": 4.9218602, "SELECTIE": "VOETBAL", "LABEL": "RAVENWERF", "COORDS": "4.921863,52.3742||", "details": {"Locatie": "Plantsoen", "Sportvoorziening": "Voetbal", "Oppervlak": "383", "image": "http://maps.amsterdam.nl/sport/Downloads/Ravenwerf.jpg", "Ondergrond": "Asfalt", "Verlichting": "Nee", "Omheining": "Kooi gesloten", "Omschrijving": "Voetbalveld met belijning, zitbanken naast veld"}, "TYPE": "punt"}, {"VOLGNR": 417, "LATMAX": 52.3476982, "LNGMAX": 4.9026599, "SELECTIE": "VOETBAL", "LABEL": "BERKELSTRAAT", "COORDS": "4.902665,52.347718||", "details": {"Locatie": "Plein", "Sportvoorziening": "Voetbal", "Oppervlak": "600", "image": "http://maps.amsterdam.nl/sport/Downloads/Berkelstraat.jpg", "Ondergrond": "Asfalt", "Verlichting": "Nee", "Omheining": "Ballenvangers", "Omschrijving": "Voetbalveld met belijning, zitbanken naast veld"}, "TYPE": "punt"}, {"VOLGNR": 418, "LATMAX": 52.3460007, "LNGMAX": 4.8964801, "SELECTIE": "VOETBAL", "LABEL": "JEKERSTRAAT", "COORDS": "4.896476,52.346002||", "details": {"Locatie": "Plantsoen", "Sportvoorziening": "Voetbal", "Oppervlak": "580", "image": "http://maps.amsterdam.nl/sport/Downloads/Jekerstraat_1.jpg", "Ondergrond": "Stoeptegels", "Verlichting": "Nee", "Omheining": "Ballenvangers", "Omschrijving": "Voetbalveld, combi-veld"}, "TYPE": "punt"}, {"VOLGNR": 419, "LATMAX": 52.3408012, "LNGMAX": 4.8994398, "SELECTIE": "VOETBAL", "LABEL": "KENNEDYPLANTSOEN", "COORDS": "4.899439,52.340847||", "details": {"Locatie": "Plantsoen", "Sportvoorziening": "Voetbal", "Oppervlak": "291", "image": "http://maps.amsterdam.nl/sport/Downloads/PKennedyplantsoen_1.jpg", "Ondergrond": "Stoeptegels", "Verlichting": "Nee", "Omheining": "Geen", "Omschrijving": "Voetbalveld, kleine doelen, veld ligt verdiept, zitbanken naast veld, combi-veld"}, "TYPE": "punt"}, {"VOLGNR": 420, "LATMAX": 52.3445015, "LNGMAX": 4.90762, "SELECTIE": "VOETBAL", "LABEL": "GAASPSTRAAT", "COORDS": "4.907616,52.34452||", "details": {"Locatie": "Speeltuin", "Sportvoorziening": "Voetbal", "Oppervlak": "1344", "image": "http://maps.amsterdam.nl/sport/Downloads/Gaaspstraat_1.jpg", "Ondergrond": "Asfalt", "Verlichting": "Nee", "Omheining": "Ballenvangers", "Omschrijving": "Voetbalveld met belijning, speeltuin Amsterdam Zuid, zitbanken naast veld"}, "TYPE": "punt"}, {"VOLGNR": 421, "LATMAX": 52.3237991, "LNGMAX": 4.8812199, "SELECTIE": "VOETBAL", "LABEL": "OPVELD", "COORDS": "4.881217,52.323811||", "details": {"Locatie": "Plantsoen", "Sportvoorziening": "Voetbal", "Oppervlak": "1535", "image": "http://maps.amsterdam.nl/sport/Downloads/Opveld_1.jpg", "Ondergrond": "Gras", "Verlichting": "Nee", "Omheining": "Ballenvangers", "Omschrijving": "Voetbalveld, zitbanken naast veld"}, "TYPE": "punt"}, {"VOLGNR": 422, "LATMAX": 52.327301, "LNGMAX": 4.8782401, "SELECTIE": "VOETBAL", "LABEL": "ZEELANDSTRAAT", "COORDS": "4.878244,52.327258||", "details": {"Locatie": "Plantsoen", "Sportvoorziening": "Voetbal", "Oppervlak": "305", "image": "http://maps.amsterdam.nl/sport/Downloads/Zeelandstraat_1.jpg", "Ondergrond": "Stoeptegels", "Verlichting": "Nee", "Omheining": "Hekwerk laag", "Omschrijving": "Voetbalveld, zitbanken naast veld"}, "TYPE": "punt"}, {"VOLGNR": 423, "LATMAX": 52.3256989, "LNGMAX": 4.8613601, "SELECTIE": "VOETBAL", "LABEL": "GOUDESTEIN", "COORDS": "4.861363,52.325737||", "details": {"Locatie": "Speeltuin", "Sportvoorziening": "Voetbal", "Oppervlak": "534", "image": "http://maps.amsterdam.nl/sport/Downloads/Goudestein_1.jpg", "Ondergrond": "Asfalt", "Verlichting": "Nee", "Omheining": "Ballenvangers", "Omschrijving": "Voetbalveld met belijning, speeltuin Goudestein, zitbanken naast veld"}, "TYPE": "punt"}, {"VOLGNR": 424, "LATMAX": 52.341301, "LNGMAX": 4.8730798, "SELECTIE": "VOETBAL", "LABEL": "ZUIDPLEIN", "COORDS": "4.87308,52.341293||", "details": {"Locatie": "Plantsoen", "Sportvoorziening": "Voetbal", "Oppervlak": "1480", "image": "http://maps.amsterdam.nl/sport/Downloads/Zuidplein.jpg", "Ondergrond": "Gras", "Verlichting": "Nee", "Omheining": "Geen", "Omschrijving": "Voetbalveld, zitbanken naast veld"}, "TYPE": "punt"}, {"VOLGNR": 425, "LATMAX": 52.3474007, "LNGMAX": 4.9517202, "SELECTIE": "VOETBAL", "LABEL": "VELD 14", "COORDS": "4.951715,52.347432||", "details": {"Locatie": "Sportveld", "Sportvoorziening": "Voetbal", "Oppervlak": "1436", "Ondergrond": "Asfalt", "Verlichting": "Ja", "Omheining": "Kooi gesloten", "Omschrijving": "Voetbalveld, combi-veld"}, "TYPE": "punt"}, {"VOLGNR": 426, "LATMAX": 52.3590012, "LNGMAX": 4.9370098, "SELECTIE": "VOETBAL", "LABEL": "SIBOGAPLEIN", "COORDS": "4.93701,52.359034||", "details": {"Locatie": "Plein", "Sportvoorziening": "Voetbal", "Oppervlak": "415", "Ondergrond": "Asfalt", "Verlichting": "Ja", "Omheining": "Kooi", "Omschrijving": "Voetbalkooi"}, "TYPE": "punt"}, {"VOLGNR": 427, "LATMAX": 52.3750992, "LNGMAX": 4.8650398, "SELECTIE": "VOETBAL", "LABEL": "MARCANTIEILAND", "COORDS": "4.865038,52.375078||", "details": {"Locatie": "Plantsoen", "Sportvoorziening": "Voetbal", "Oppervlak": "173", "Ondergrond": "Kunstgras", "Verlichting": "Ja", "Omheining": "Hekwerk laag", "Omschrijving": "Voetbalveld (twee delen) met bankjes"}, "TYPE": "punt"}, {"VOLGNR": 430, "LATMAX": 52.3484993, "LNGMAX": 4.81811, "SELECTIE": "VOETBAL", "LABEL": "DIEPENBEEKPLANTSOEN", "COORDS": "4.818107,52.348528||", "details": {"Locatie": "Plantsoen", "Sportvoorziening": "Voetbal", "Oppervlak": "136", "Ondergrond": "Kunstgras", "Verlichting": "Nee", "Omheining": "Geen", "Omschrijving": "Voetbalveld met twee kleine doeltjes"}, "TYPE": "punt"}, {"VOLGNR": 431, "LATMAX": 52.3550987, "LNGMAX": 4.79706, "SELECTIE": "VOETBAL", "LABEL": "WOLBRANTSKERKWEG", "COORDS": "4.797062,52.355067||", "details": {"Locatie": "Straat", "Sportvoorziening": "Voetbal", "Oppervlak": "238", "Ondergrond": "Asfalt", "Verlichting": "Nee", "Omheining": "Hekwerk laag", "Omschrijving": "Pannacourt dit najaar klaar"}, "TYPE": "punt"}, {"VOLGNR": 432, "LATMAX": 52.3554993, "LNGMAX": 4.7925601, "SELECTIE": "VOETBAL", "LABEL": "EVERTSWEERTPLANTSOEN", "COORDS": "4.792565,52.355476||", "details": {"Locatie": "Plantsoen", "Sportvoorziening": "Voetbal", "Oppervlak": "311", "Ondergrond": "Asfalt", "Verlichting": "Nee", "Omheining": "Hekwerk", "Omschrijving": "Voetbalveld ligt bij bredeschool de Kikker, ook gebruikt als schoolplein"}, "TYPE": "punt"},